{
    "type": "FeatureCollection",
    "features": [
        {
            "type": "Feature",
            "geometry": {
                "type": "Point",
                "coordinates": [
                    -1.47619,
                    53.386304
                ]
            },
            "properties": {
                "name": "The School Room",
                "board": "moon"
            }
        },
        {
            "type": "Feature",
            "geometry": {
                "type": "Point",
                "coordinates": [
                    -0.570409,
                    51.23622
                ]
            },
            "properties": {
                "name": "Craggy Island Moonboard",
                "board": "moon"
            }
        },
        {
            "type": "Feature",
            "geometry": {
                "type": "Point",
                "coordinates": [
                    130.7078911,
                    32.8031004
                ]
            },
            "properties": {
                "name": "The Ranch",
                "board": "moon"
            }
        },
        {
            "type": "Feature",
            "geometry": {
                "type": "Point",
                "coordinates": [
                    19.9348339,
                    60.0970945
                ]
            },
            "properties": {
                "name": "The Matrix",
                "board": "moon"
            }
        },
        {
            "type": "Feature",
            "geometry": {
                "type": "Point",
                "coordinates": [
                    8.8531265,
                    45.611892
                ]
            },
            "properties": {
                "name": "Capanno Boulder",
                "board": "moon"
            }
        },
        {
            "type": "Feature",
            "geometry": {
                "type": "Point",
                "coordinates": [
                    -117.2139232,
                    33.5539143
                ]
            },
            "properties": {
                "name": "RockFitness MoonBoard",
                "board": "moon"
            }
        },
        {
            "type": "Feature",
            "geometry": {
                "type": "Point",
                "coordinates": [
                    -117.1610838,
                    32.715738
                ]
            },
            "properties": {
                "name": "Pull Harder",
                "board": "moon"
            }
        },
        {
            "type": "Feature",
            "geometry": {
                "type": "Point",
                "coordinates": [
                    8.0182064,
                    58.1599119
                ]
            },
            "properties": {
                "name": "Aquarama",
                "board": "moon"
            }
        },
        {
            "type": "Feature",
            "geometry": {
                "type": "Point",
                "coordinates": [
                    5.03716,
                    51.0297
                ]
            },
            "properties": {
                "name": "The Attic",
                "board": "moon"
            }
        },
        {
            "type": "Feature",
            "geometry": {
                "type": "Point",
                "coordinates": [
                    30.3350986,
                    59.9342802
                ]
            },
            "properties": {
                "name": "Tramontana",
                "board": "moon"
            }
        },
        {
            "type": "Feature",
            "geometry": {
                "type": "Point",
                "coordinates": [
                    24.938379,
                    60.1698557
                ]
            },
            "properties": {
                "name": "Boulderkeskus Pasila",
                "board": "moon"
            }
        },
        {
            "type": "Feature",
            "geometry": {
                "type": "Point",
                "coordinates": [
                    -1.2659408,
                    60.5296507
                ]
            },
            "properties": {
                "name": "Eshaness Schoolroom",
                "board": "moon"
            }
        },
        {
            "type": "Feature",
            "geometry": {
                "type": "Point",
                "coordinates": [
                    -3.7037902,
                    40.4167754
                ]
            },
            "properties": {
                "name": "The Climb",
                "board": "moon"
            }
        },
        {
            "type": "Feature",
            "geometry": {
                "type": "Point",
                "coordinates": [
                    -74.0984756,
                    41.0584299
                ]
            },
            "properties": {
                "name": "GRAVITY VAULT",
                "board": "moon"
            }
        },
        {
            "type": "Feature",
            "geometry": {
                "type": "Point",
                "coordinates": [
                    7.3306676,
                    44.8845906
                ]
            },
            "properties": {
                "name": "KUOTA 8.10",
                "board": "moon"
            }
        },
        {
            "type": "Feature",
            "geometry": {
                "type": "Point",
                "coordinates": [
                    19.9449799,
                    50.0646501
                ]
            },
            "properties": {
                "name": "PARBAT",
                "board": "moon"
            }
        },
        {
            "type": "Feature",
            "geometry": {
                "type": "Point",
                "coordinates": [
                    139.6917064,
                    35.6894875
                ]
            },
            "properties": {
                "name": "VOLNY",
                "board": "moon"
            }
        },
        {
            "type": "Feature",
            "geometry": {
                "type": "Point",
                "coordinates": [
                    6.129583,
                    49.815273
                ]
            },
            "properties": {
                "name": "B.K.L.",
                "board": "moon"
            }
        },
        {
            "type": "Feature",
            "geometry": {
                "type": "Point",
                "coordinates": [
                    9.1859243,
                    45.4654219
                ]
            },
            "properties": {
                "name": "Rockspot",
                "board": "moon"
            }
        },
        {
            "type": "Feature",
            "geometry": {
                "type": "Point",
                "coordinates": [
                    151.2092955,
                    -33.8688197
                ]
            },
            "properties": {
                "name": "Illyria's Board",
                "board": "moon"
            }
        },
        {
            "type": "Feature",
            "geometry": {
                "type": "Point",
                "coordinates": [
                    -106.6055534,
                    35.0853336
                ]
            },
            "properties": {
                "name": "Voyager",
                "board": "moon"
            }
        },
        {
            "type": "Feature",
            "geometry": {
                "type": "Point",
                "coordinates": [
                    -2.74629,
                    54.328006
                ]
            },
            "properties": {
                "name": "Kendal Board",
                "board": "moon"
            }
        },
        {
            "type": "Feature",
            "geometry": {
                "type": "Point",
                "coordinates": [
                    -81.5157535,
                    27.6648274
                ]
            },
            "properties": {
                "name": "University of West Florida",
                "board": "moon"
            }
        },
        {
            "type": "Feature",
            "geometry": {
                "type": "Point",
                "coordinates": [
                    10.9252269,
                    44.647128
                ]
            },
            "properties": {
                "name": "GEKOCLIMB MOONBOARD",
                "board": "moon"
            }
        },
        {
            "type": "Feature",
            "geometry": {
                "type": "Point",
                "coordinates": [
                    16.9251681,
                    52.406374
                ]
            },
            "properties": {
                "name": "BLOKHAUS",
                "board": "moon"
            }
        },
        {
            "type": "Feature",
            "geometry": {
                "type": "Point",
                "coordinates": [
                    16.8423093,
                    45.8987972
                ]
            },
            "properties": {
                "name": "SPK Grip Moonboard",
                "board": "moon"
            }
        },
        {
            "type": "Feature",
            "geometry": {
                "type": "Point",
                "coordinates": [
                    8.4422899,
                    50.2696397
                ]
            },
            "properties": {
                "name": "Schmitten Power Room",
                "board": "moon"
            }
        },
        {
            "type": "Feature",
            "geometry": {
                "type": "Point",
                "coordinates": [
                    26.9798133,
                    36.9533092
                ]
            },
            "properties": {
                "name": "Climb In",
                "board": "moon"
            }
        },
        {
            "type": "Feature",
            "geometry": {
                "type": "Point",
                "coordinates": [
                    18.0009,
                    59.36
                ]
            },
            "properties": {
                "name": "H\u00c3\u00a4rkkboard",
                "board": "moon"
            }
        },
        {
            "type": "Feature",
            "geometry": {
                "type": "Point",
                "coordinates": [
                    136.2596226,
                    35.274461
                ]
            },
            "properties": {
                "name": "goodboulderingMOONBOARD",
                "board": "moon"
            }
        },
        {
            "type": "Feature",
            "geometry": {
                "type": "Point",
                "coordinates": [
                    130.5083735,
                    33.3192865
                ]
            },
            "properties": {
                "name": "Joywall",
                "board": "moon"
            }
        },
        {
            "type": "Feature",
            "geometry": {
                "type": "Point",
                "coordinates": [
                    -85.684578,
                    31.4645298
                ]
            },
            "properties": {
                "name": "Dale idrettshall",
                "board": "moon"
            }
        },
        {
            "type": "Feature",
            "geometry": {
                "type": "Point",
                "coordinates": [
                    9.1859243,
                    45.4654219
                ]
            },
            "properties": {
                "name": "CruxMoveMoonBoard",
                "board": "moon"
            }
        },
        {
            "type": "Feature",
            "geometry": {
                "type": "Point",
                "coordinates": [
                    9.4348624,
                    45.5565542
                ]
            },
            "properties": {
                "name": "Vert Climb",
                "board": "moon"
            }
        },
        {
            "type": "Feature",
            "geometry": {
                "type": "Point",
                "coordinates": [
                    -80.8431267,
                    35.2270869
                ]
            },
            "properties": {
                "name": "Inner Peaks Climbing",
                "board": "moon"
            }
        },
        {
            "type": "Feature",
            "geometry": {
                "type": "Point",
                "coordinates": [
                    -3.784097,
                    51.5946799
                ]
            },
            "properties": {
                "name": "YM Board",
                "board": "moon"
            }
        },
        {
            "type": "Feature",
            "geometry": {
                "type": "Point",
                "coordinates": [
                    12.4963655,
                    41.9027835
                ]
            },
            "properties": {
                "name": "Get Up!",
                "board": "moon"
            }
        },
        {
            "type": "Feature",
            "geometry": {
                "type": "Point",
                "coordinates": [
                    12.1074763,
                    44.2968832
                ]
            },
            "properties": {
                "name": "CoccoBlocco",
                "board": "moon"
            }
        },
        {
            "type": "Feature",
            "geometry": {
                "type": "Point",
                "coordinates": [
                    8.1028176,
                    45.5832245
                ]
            },
            "properties": {
                "name": "The Care",
                "board": "moon"
            }
        },
        {
            "type": "Feature",
            "geometry": {
                "type": "Point",
                "coordinates": [
                    37.6173,
                    55.755826
                ]
            },
            "properties": {
                "name": "Skalatoria",
                "board": "moon"
            }
        },
        {
            "type": "Feature",
            "geometry": {
                "type": "Point",
                "coordinates": [
                    -2.585278,
                    49.465691
                ]
            },
            "properties": {
                "name": "The GMC",
                "board": "moon"
            }
        },
        {
            "type": "Feature",
            "geometry": {
                "type": "Point",
                "coordinates": [
                    10.7522454,
                    59.9138688
                ]
            },
            "properties": {
                "name": "Blindern SIO Moonwall",
                "board": "moon"
            }
        },
        {
            "type": "Feature",
            "geometry": {
                "type": "Point",
                "coordinates": [
                    126.8308848,
                    37.3218778
                ]
            },
            "properties": {
                "name": "ansanclimbing gym",
                "board": "moon"
            }
        },
        {
            "type": "Feature",
            "geometry": {
                "type": "Point",
                "coordinates": [
                    23.3218675,
                    42.6977082
                ]
            },
            "properties": {
                "name": "Bonsist",
                "board": "moon"
            }
        },
        {
            "type": "Feature",
            "geometry": {
                "type": "Point",
                "coordinates": [
                    -123.1558121,
                    49.7016339
                ]
            },
            "properties": {
                "name": "Grand Wall Bouldering Co-operative",
                "board": "moon"
            }
        },
        {
            "type": "Feature",
            "geometry": {
                "type": "Point",
                "coordinates": [
                    172.6362254,
                    -43.5320544
                ]
            },
            "properties": {
                "name": "MoonBoard @ Uprising",
                "board": "moon"
            }
        },
        {
            "type": "Feature",
            "geometry": {
                "type": "Point",
                "coordinates": [
                    19.040235,
                    47.497912
                ]
            },
            "properties": {
                "name": "Ujjer\u0151 Moonboard",
                "board": "moon"
            }
        },
        {
            "type": "Feature",
            "geometry": {
                "type": "Point",
                "coordinates": [
                    24.1255826,
                    45.7983273
                ]
            },
            "properties": {
                "name": "Panoul de Catzarat Sibiu",
                "board": "moon"
            }
        },
        {
            "type": "Feature",
            "geometry": {
                "type": "Point",
                "coordinates": [
                    11.2899694,
                    48.1092285
                ]
            },
            "properties": {
                "name": "Kletter- und Boulderzentrum M\u00fcnchen",
                "board": "moon"
            }
        },
        {
            "type": "Feature",
            "geometry": {
                "type": "Point",
                "coordinates": [
                    136.7093359,
                    34.4875144
                ]
            },
            "properties": {
                "name": "SunnyDipperMoonBoard",
                "board": "moon"
            }
        },
        {
            "type": "Feature",
            "geometry": {
                "type": "Point",
                "coordinates": [
                    126.4503169,
                    36.7844993
                ]
            },
            "properties": {
                "name": "Gorilla climbing's Moonboard",
                "board": "moon"
            }
        },
        {
            "type": "Feature",
            "geometry": {
                "type": "Point",
                "coordinates": [
                    5.8864788,
                    51.0006238
                ]
            },
            "properties": {
                "name": "GRAVITON",
                "board": "moon"
            }
        },
        {
            "type": "Feature",
            "geometry": {
                "type": "Point",
                "coordinates": [
                    133.9195019,
                    34.6551456
                ]
            },
            "properties": {
                "name": "BoulderGarden SaBo",
                "board": "moon"
            }
        },
        {
            "type": "Feature",
            "geometry": {
                "type": "Point",
                "coordinates": [
                    -89.4012302,
                    43.0730517
                ]
            },
            "properties": {
                "name": "Summit the Moon",
                "board": "moon"
            }
        },
        {
            "type": "Feature",
            "geometry": {
                "type": "Point",
                "coordinates": [
                    7.8960573,
                    44.6867594
                ]
            },
            "properties": {
                "name": "Vertigo Moon Board",
                "board": "moon"
            }
        },
        {
            "type": "Feature",
            "geometry": {
                "type": "Point",
                "coordinates": [
                    19.5340252,
                    50.5638534
                ]
            },
            "properties": {
                "name": "Trafo Base Camp",
                "board": "moon"
            }
        },
        {
            "type": "Feature",
            "geometry": {
                "type": "Point",
                "coordinates": [
                    19.9449799,
                    50.0646501
                ]
            },
            "properties": {
                "name": "CW Forteca",
                "board": "moon"
            }
        },
        {
            "type": "Feature",
            "geometry": {
                "type": "Point",
                "coordinates": [
                    22.5684463,
                    51.2464536
                ]
            },
            "properties": {
                "name": "LCW Paderewski",
                "board": "moon"
            }
        },
        {
            "type": "Feature",
            "geometry": {
                "type": "Point",
                "coordinates": [
                    17.0385376,
                    51.1078852
                ]
            },
            "properties": {
                "name": "Eiger",
                "board": "moon"
            }
        },
        {
            "type": "Feature",
            "geometry": {
                "type": "Point",
                "coordinates": [
                    19.7065364,
                    52.5463446
                ]
            },
            "properties": {
                "name": "P\u0142ockie Centrum Wspinaczkowe - Orlen Arena",
                "board": "moon"
            }
        },
        {
            "type": "Feature",
            "geometry": {
                "type": "Point",
                "coordinates": [
                    -97.7430608,
                    30.267153
                ]
            },
            "properties": {
                "name": "SARG",
                "board": "moon"
            }
        },
        {
            "type": "Feature",
            "geometry": {
                "type": "Point",
                "coordinates": [
                    2.1734035,
                    41.3850639
                ]
            },
            "properties": {
                "name": "FreeblocBoard",
                "board": "moon"
            }
        },
        {
            "type": "Feature",
            "geometry": {
                "type": "Point",
                "coordinates": [
                    19.4559833,
                    51.7592485
                ]
            },
            "properties": {
                "name": "Spot Boulder Caffe",
                "board": "moon"
            }
        },
        {
            "type": "Feature",
            "geometry": {
                "type": "Point",
                "coordinates": [
                    18.5984437,
                    53.0137902
                ]
            },
            "properties": {
                "name": "Gato",
                "board": "moon"
            }
        },
        {
            "type": "Feature",
            "geometry": {
                "type": "Point",
                "coordinates": [
                    10.2044564,
                    59.7440738
                ]
            },
            "properties": {
                "name": "Klatreverket Drammen",
                "board": "moon"
            }
        },
        {
            "type": "Feature",
            "geometry": {
                "type": "Point",
                "coordinates": [
                    -89.4012302,
                    43.0730517
                ]
            },
            "properties": {
                "name": "Summit Strength & Fitness",
                "board": "moon"
            }
        },
        {
            "type": "Feature",
            "geometry": {
                "type": "Point",
                "coordinates": [
                    -6.2603097,
                    53.3498053
                ]
            },
            "properties": {
                "name": "The Training Room - Awesome Walls Dublin",
                "board": "moon"
            }
        },
        {
            "type": "Feature",
            "geometry": {
                "type": "Point",
                "coordinates": [
                    -95.9979883,
                    41.2523634
                ]
            },
            "properties": {
                "name": "Approach Climbing Gym",
                "board": "moon"
            }
        },
        {
            "type": "Feature",
            "geometry": {
                "type": "Point",
                "coordinates": [
                    -111.4979729,
                    40.6460622
                ]
            },
            "properties": {
                "name": "The Mine Bouldering Gym",
                "board": "moon"
            }
        },
        {
            "type": "Feature",
            "geometry": {
                "type": "Point",
                "coordinates": [
                    121.1366715,
                    24.9242108
                ]
            },
            "properties": {
                "name": "T-UP BOARD",
                "board": "moon"
            }
        },
        {
            "type": "Feature",
            "geometry": {
                "type": "Point",
                "coordinates": [
                    43.93605900000001,
                    56.2965039
                ]
            },
            "properties": {
                "name": "LAD Moonboard",
                "board": "moon"
            }
        },
        {
            "type": "Feature",
            "geometry": {
                "type": "Point",
                "coordinates": [
                    -122.6764816,
                    45.5230622
                ]
            },
            "properties": {
                "name": "PRG Moonboard",
                "board": "moon"
            }
        },
        {
            "type": "Feature",
            "geometry": {
                "type": "Point",
                "coordinates": [
                    -104.8213634,
                    38.8338816
                ]
            },
            "properties": {
                "name": "CityRock!",
                "board": "moon"
            }
        },
        {
            "type": "Feature",
            "geometry": {
                "type": "Point",
                "coordinates": [
                    50.2212463,
                    53.2415041
                ]
            },
            "properties": {
                "name": "SMiLE JYM",
                "board": "moon"
            }
        },
        {
            "type": "Feature",
            "geometry": {
                "type": "Point",
                "coordinates": [
                    -84.5037164,
                    38.0405837
                ]
            },
            "properties": {
                "name": "LEF",
                "board": "moon"
            }
        },
        {
            "type": "Feature",
            "geometry": {
                "type": "Point",
                "coordinates": [
                    33.0826598,
                    68.9585244
                ]
            },
            "properties": {
                "name": "ViCKy MOON",
                "board": "moon"
            }
        },
        {
            "type": "Feature",
            "geometry": {
                "type": "Point",
                "coordinates": [
                    -1.519693,
                    52.406822
                ]
            },
            "properties": {
                "name": "Ballroom Moonboard",
                "board": "moon"
            }
        },
        {
            "type": "Feature",
            "geometry": {
                "type": "Point",
                "coordinates": [
                    54.543333,
                    39.673333
                ]
            },
            "properties": {
                "name": "Mert club (Moon board 2017, All sets of holds.)",
                "board": "moon"
            }
        },
        {
            "type": "Feature",
            "geometry": {
                "type": "Point",
                "coordinates": [
                    -60.697294,
                    -31.6106578
                ]
            },
            "properties": {
                "name": "Boulderland",
                "board": "moon"
            }
        },
        {
            "type": "Feature",
            "geometry": {
                "type": "Point",
                "coordinates": [
                    -123.0867536,
                    44.0520691
                ]
            },
            "properties": {
                "name": "Elevation Moon Board",
                "board": "moon"
            }
        },
        {
            "type": "Feature",
            "geometry": {
                "type": "Point",
                "coordinates": [
                    11.8767611,
                    45.4064349
                ]
            },
            "properties": {
                "name": "Intellighenzia Project",
                "board": "moon"
            }
        },
        {
            "type": "Feature",
            "geometry": {
                "type": "Point",
                "coordinates": [
                    -94.6707917,
                    38.9822282
                ]
            },
            "properties": {
                "name": "Apex MoonBoard",
                "board": "moon"
            }
        },
        {
            "type": "Feature",
            "geometry": {
                "type": "Point",
                "coordinates": [
                    14.6658136,
                    57.3989958
                ]
            },
            "properties": {
                "name": "S\u00e4vsj\u00f6 Kl\u00e4tterklubb",
                "board": "moon"
            }
        },
        {
            "type": "Feature",
            "geometry": {
                "type": "Point",
                "coordinates": [
                    19.4478,
                    51.7806999
                ]
            },
            "properties": {
                "name": "Stratosfera",
                "board": "moon"
            }
        },
        {
            "type": "Feature",
            "geometry": {
                "type": "Point",
                "coordinates": [
                    -122.2758008,
                    37.5202145
                ]
            },
            "properties": {
                "name": "Planet Granite Belmont Moonboard",
                "board": "moon"
            }
        },
        {
            "type": "Feature",
            "geometry": {
                "type": "Point",
                "coordinates": [
                    -118.2436849,
                    34.0522342
                ]
            },
            "properties": {
                "name": "The Stronghold Moonboard",
                "board": "moon"
            }
        },
        {
            "type": "Feature",
            "geometry": {
                "type": "Point",
                "coordinates": [
                    -72.5578678,
                    42.8509152
                ]
            },
            "properties": {
                "name": "BrattCave",
                "board": "moon"
            }
        },
        {
            "type": "Feature",
            "geometry": {
                "type": "Point",
                "coordinates": [
                    138.1281269,
                    34.6379866
                ]
            },
            "properties": {
                "name": "QRiMo",
                "board": "moon"
            }
        },
        {
            "type": "Feature",
            "geometry": {
                "type": "Point",
                "coordinates": [
                    20.2630354,
                    63.8258471
                ]
            },
            "properties": {
                "name": "The KFUM board",
                "board": "moon"
            }
        },
        {
            "type": "Feature",
            "geometry": {
                "type": "Point",
                "coordinates": [
                    14.7339367,
                    42.0440032
                ]
            },
            "properties": {
                "name": "Mare Verticale Moon Board",
                "board": "moon"
            }
        },
        {
            "type": "Feature",
            "geometry": {
                "type": "Point",
                "coordinates": [
                    -73.9487715,
                    40.7486504
                ]
            },
            "properties": {
                "name": "The Cliffs in LIC/Moonboard",
                "board": "moon"
            }
        },
        {
            "type": "Feature",
            "geometry": {
                "type": "Point",
                "coordinates": [
                    12.2547219,
                    54.935642
                ]
            },
            "properties": {
                "name": "M\u00f8n Boulders",
                "board": "moon"
            }
        },
        {
            "type": "Feature",
            "geometry": {
                "type": "Point",
                "coordinates": [
                    37.6172999,
                    55.755826
                ]
            },
            "properties": {
                "name": "Bauman Moscow State Technical University",
                "board": "moon"
            }
        },
        {
            "type": "Feature",
            "geometry": {
                "type": "Point",
                "coordinates": [
                    4.3570677,
                    52.0115769
                ]
            },
            "properties": {
                "name": "Delfts Bleau",
                "board": "moon"
            }
        },
        {
            "type": "Feature",
            "geometry": {
                "type": "Point",
                "coordinates": [
                    24.6066847,
                    43.4170423
                ]
            },
            "properties": {
                "name": "EMO_MUXI",
                "board": "moon"
            }
        },
        {
            "type": "Feature",
            "geometry": {
                "type": "Point",
                "coordinates": [
                    12.82113,
                    47.84814
                ]
            },
            "properties": {
                "name": "TeisendorfMoon",
                "board": "moon"
            }
        },
        {
            "type": "Feature",
            "geometry": {
                "type": "Point",
                "coordinates": [
                    131.609272,
                    33.2395578
                ]
            },
            "properties": {
                "name": "Oita Climbing Gym DAIBU",
                "board": "moon"
            }
        },
        {
            "type": "Feature",
            "geometry": {
                "type": "Point",
                "coordinates": [
                    5.8488429,
                    62.3433146
                ]
            },
            "properties": {
                "name": "Klivrelaget",
                "board": "moon"
            }
        },
        {
            "type": "Feature",
            "geometry": {
                "type": "Point",
                "coordinates": [
                    16.3225762,
                    47.9755596
                ]
            },
            "properties": {
                "name": "Klettercenter Rotpunkt",
                "board": "moon"
            }
        },
        {
            "type": "Feature",
            "geometry": {
                "type": "Point",
                "coordinates": [
                    8.45121,
                    50.13489
                ]
            },
            "properties": {
                "name": "Moonboard Sportpark Kelkheim",
                "board": "moon"
            }
        },
        {
            "type": "Feature",
            "geometry": {
                "type": "Point",
                "coordinates": [
                    -0.0608,
                    51.4931952
                ]
            },
            "properties": {
                "name": "Arch Climbing Wall",
                "board": "moon"
            }
        },
        {
            "type": "Feature",
            "geometry": {
                "type": "Point",
                "coordinates": [
                    139.1825675,
                    37.7445357
                ]
            },
            "properties": {
                "name": "little forest",
                "board": "moon"
            }
        },
        {
            "type": "Feature",
            "geometry": {
                "type": "Point",
                "coordinates": [
                    -123.1207375,
                    49.2827291
                ]
            },
            "properties": {
                "name": "Hive: Vancouver",
                "board": "moon"
            }
        },
        {
            "type": "Feature",
            "geometry": {
                "type": "Point",
                "coordinates": [
                    16.6218441,
                    47.2306851
                ]
            },
            "properties": {
                "name": "M\u00e1sz\u00f3ka",
                "board": "moon"
            }
        },
        {
            "type": "Feature",
            "geometry": {
                "type": "Point",
                "coordinates": [
                    -81.655651,
                    30.3321838
                ]
            },
            "properties": {
                "name": "The Edge Rock Gym",
                "board": "moon"
            }
        },
        {
            "type": "Feature",
            "geometry": {
                "type": "Point",
                "coordinates": [
                    8.4036527,
                    49.0068901
                ]
            },
            "properties": {
                "name": "THE ROCK Boulderhalle",
                "board": "moon"
            }
        },
        {
            "type": "Feature",
            "geometry": {
                "type": "Point",
                "coordinates": [
                    16.6068371,
                    49.1950602
                ]
            },
            "properties": {
                "name": "Flashboulderbar",
                "board": "moon"
            }
        },
        {
            "type": "Feature",
            "geometry": {
                "type": "Point",
                "coordinates": [
                    -94.2816148,
                    39.0169509
                ]
            },
            "properties": {
                "name": "IBEX Climbing Gym",
                "board": "moon"
            }
        },
        {
            "type": "Feature",
            "geometry": {
                "type": "Point",
                "coordinates": [
                    -123.9400648,
                    49.1658836
                ]
            },
            "properties": {
                "name": "Romper Room Indoor Rock climbing Centre",
                "board": "moon"
            }
        },
        {
            "type": "Feature",
            "geometry": {
                "type": "Point",
                "coordinates": [
                    6.1657813,
                    46.2876938
                ]
            },
            "properties": {
                "name": "Totem Versoix",
                "board": "moon"
            }
        },
        {
            "type": "Feature",
            "geometry": {
                "type": "Point",
                "coordinates": [
                    15.1703135,
                    50.7220528
                ]
            },
            "properties": {
                "name": "MAKAK ARENA ",
                "board": "moon"
            }
        },
        {
            "type": "Feature",
            "geometry": {
                "type": "Point",
                "coordinates": [
                    -1.837254,
                    51.830777
                ]
            },
            "properties": {
                "name": "Far Peak Climbing Centre",
                "board": "moon"
            }
        },
        {
            "type": "Feature",
            "geometry": {
                "type": "Point",
                "coordinates": [
                    -1.471551,
                    53.390203
                ]
            },
            "properties": {
                "name": "The Foundry",
                "board": "moon"
            }
        },
        {
            "type": "Feature",
            "geometry": {
                "type": "Point",
                "coordinates": [
                    -45.5563555,
                    -23.0204559
                ]
            },
            "properties": {
                "name": "Gin\u00e1sio Mantiqueira Escalada",
                "board": "moon"
            }
        },
        {
            "type": "Feature",
            "geometry": {
                "type": "Point",
                "coordinates": [
                    -122.5983981,
                    49.2193226
                ]
            },
            "properties": {
                "name": "The Rock Wall Climbing Gym",
                "board": "moon"
            }
        },
        {
            "type": "Feature",
            "geometry": {
                "type": "Point",
                "coordinates": [
                    10.3627835,
                    48.3031965
                ]
            },
            "properties": {
                "name": "Kletterzentrum Krumbach",
                "board": "moon"
            }
        },
        {
            "type": "Feature",
            "geometry": {
                "type": "Point",
                "coordinates": [
                    13.5749442,
                    42.8536043
                ]
            },
            "properties": {
                "name": "Climb AP",
                "board": "moon"
            }
        },
        {
            "type": "Feature",
            "geometry": {
                "type": "Point",
                "coordinates": [
                    7.559449499999999,
                    45.0677516
                ]
            },
            "properties": {
                "name": "La MOLE Sports Academy",
                "board": "moon"
            }
        },
        {
            "type": "Feature",
            "geometry": {
                "type": "Point",
                "coordinates": [
                    12.5496237,
                    46.5580169
                ]
            },
            "properties": {
                "name": "Comelico Climb MOON",
                "board": "moon"
            }
        },
        {
            "type": "Feature",
            "geometry": {
                "type": "Point",
                "coordinates": [
                    9.7120357,
                    48.7023247
                ]
            },
            "properties": {
                "name": "Steinzeit_Boulderhalle",
                "board": "moon"
            }
        },
        {
            "type": "Feature",
            "geometry": {
                "type": "Point",
                "coordinates": [
                    13.10037,
                    47.68248
                ]
            },
            "properties": {
                "name": "Boulderhallein",
                "board": "moon"
            }
        },
        {
            "type": "Feature",
            "geometry": {
                "type": "Point",
                "coordinates": [
                    12.4912407,
                    55.68352849999999
                ]
            },
            "properties": {
                "name": "Beta Boulders Copenhagen",
                "board": "moon"
            }
        },
        {
            "type": "Feature",
            "geometry": {
                "type": "Point",
                "coordinates": [
                    100.3326786,
                    5.4163935
                ]
            },
            "properties": {
                "name": "Moonboard",
                "board": "moon"
            }
        },
        {
            "type": "Feature",
            "geometry": {
                "type": "Point",
                "coordinates": [
                    19.0583845,
                    49.8223768
                ]
            },
            "properties": {
                "name": "Primaroca",
                "board": "moon"
            }
        },
        {
            "type": "Feature",
            "geometry": {
                "type": "Point",
                "coordinates": [
                    -47.87392579999999,
                    -15.7756816
                ]
            },
            "properties": {
                "name": "UBT ESCALADA",
                "board": "moon"
            }
        },
        {
            "type": "Feature",
            "geometry": {
                "type": "Point",
                "coordinates": [
                    6.9602786,
                    50.937531
                ]
            },
            "properties": {
                "name": "Boulderplanet",
                "board": "moon"
            }
        },
        {
            "type": "Feature",
            "geometry": {
                "type": "Point",
                "coordinates": [
                    4.9035614,
                    52.3679843
                ]
            },
            "properties": {
                "name": "Monk Amsterdam Moonboard",
                "board": "moon"
            }
        },
        {
            "type": "Feature",
            "geometry": {
                "type": "Point",
                "coordinates": [
                    21.2610746,
                    48.7163857
                ]
            },
            "properties": {
                "name": "Climbing Wall Rozlomity",
                "board": "moon"
            }
        },
        {
            "type": "Feature",
            "geometry": {
                "type": "Point",
                "coordinates": [
                    135.5213199,
                    34.6645243
                ]
            },
            "properties": {
                "name": "CRUX Osaka",
                "board": "moon"
            }
        },
        {
            "type": "Feature",
            "geometry": {
                "type": "Point",
                "coordinates": [
                    150.9775568,
                    -33.8791418
                ]
            },
            "properties": {
                "name": "SICG Villawood",
                "board": "moon"
            }
        },
        {
            "type": "Feature",
            "geometry": {
                "type": "Point",
                "coordinates": [
                    126.9917937,
                    37.5518911
                ]
            },
            "properties": {
                "name": "Koalaclimbinggym",
                "board": "moon"
            }
        },
        {
            "type": "Feature",
            "geometry": {
                "type": "Point",
                "coordinates": [
                    -85.6466583,
                    42.9347612
                ]
            },
            "properties": {
                "name": "TERRA FIRMA",
                "board": "moon"
            }
        },
        {
            "type": "Feature",
            "geometry": {
                "type": "Point",
                "coordinates": [
                    12.103011,
                    54.096812
                ]
            },
            "properties": {
                "name": "Moonshine",
                "board": "moon"
            }
        },
        {
            "type": "Feature",
            "geometry": {
                "type": "Point",
                "coordinates": [
                    -1.753619,
                    51.5822099
                ]
            },
            "properties": {
                "name": "Rockstar Climbing",
                "board": "moon"
            }
        },
        {
            "type": "Feature",
            "geometry": {
                "type": "Point",
                "coordinates": [
                    131.927311,
                    43.116352
                ]
            },
            "properties": {
                "name": "Onsight",
                "board": "moon"
            }
        },
        {
            "type": "Feature",
            "geometry": {
                "type": "Point",
                "coordinates": [
                    -1.9407653,
                    50.73215039999999
                ]
            },
            "properties": {
                "name": "Smithys backyard Board",
                "board": "moon"
            }
        },
        {
            "type": "Feature",
            "geometry": {
                "type": "Point",
                "coordinates": [
                    -46.6744396,
                    -23.5829602
                ]
            },
            "properties": {
                "name": "FABRICA Escalada",
                "board": "moon"
            }
        },
        {
            "type": "Feature",
            "geometry": {
                "type": "Point",
                "coordinates": [
                    -87.40626639999999,
                    39.4051669
                ]
            },
            "properties": {
                "name": "Climbing Cafe",
                "board": "moon"
            }
        },
        {
            "type": "Feature",
            "geometry": {
                "type": "Point",
                "coordinates": [
                    -87.9154566,
                    43.0437422
                ]
            },
            "properties": {
                "name": "Milwaukee Turners",
                "board": "moon"
            }
        },
        {
            "type": "Feature",
            "geometry": {
                "type": "Point",
                "coordinates": [
                    -3.0087738,
                    53.20094109999999
                ]
            },
            "properties": {
                "name": "The Boardroom Climbing Ltd",
                "board": "moon"
            }
        },
        {
            "type": "Feature",
            "geometry": {
                "type": "Point",
                "coordinates": [
                    33.7777146,
                    -13.9427314
                ]
            },
            "properties": {
                "name": "Climb Centre Malawi",
                "board": "moon"
            }
        },
        {
            "type": "Feature",
            "geometry": {
                "type": "Point",
                "coordinates": [
                    8.4873221,
                    55.4776611
                ]
            },
            "properties": {
                "name": "Boulder Hulen",
                "board": "moon"
            }
        },
        {
            "type": "Feature",
            "geometry": {
                "type": "Point",
                "coordinates": [
                    11.067052,
                    47.30391299999999
                ]
            },
            "properties": {
                "name": "Bergstation / Kletterzentrum Telfs",
                "board": "moon"
            }
        },
        {
            "type": "Feature",
            "geometry": {
                "type": "Point",
                "coordinates": [
                    -2.569098,
                    51.455472
                ]
            },
            "properties": {
                "name": "TCA The Mothership",
                "board": "moon"
            }
        },
        {
            "type": "Feature",
            "geometry": {
                "type": "Point",
                "coordinates": [
                    2.0837384,
                    41.6159028
                ]
            },
            "properties": {
                "name": "CANGLOMERAT",
                "board": "moon"
            }
        },
        {
            "type": "Feature",
            "geometry": {
                "type": "Point",
                "coordinates": [
                    106.7298685,
                    10.8169516
                ]
            },
            "properties": {
                "name": "Push Climbing",
                "board": "moon"
            }
        },
        {
            "type": "Feature",
            "geometry": {
                "type": "Point",
                "coordinates": [
                    7.6866838,
                    45.1114724
                ]
            },
            "properties": {
                "name": "BoulderBarBoard",
                "board": "moon"
            }
        },
        {
            "type": "Feature",
            "geometry": {
                "type": "Point",
                "coordinates": [
                    -0.2115089,
                    50.8356417
                ]
            },
            "properties": {
                "name": "Boulder Brighton",
                "board": "moon"
            }
        },
        {
            "type": "Feature",
            "geometry": {
                "type": "Point",
                "coordinates": [
                    -46.6785181,
                    -23.5304387
                ]
            },
            "properties": {
                "name": "Casa de Pedra Perdizes",
                "board": "moon"
            }
        },
        {
            "type": "Feature",
            "geometry": {
                "type": "Point",
                "coordinates": [
                    -43.1728965,
                    -22.9068467
                ]
            },
            "properties": {
                "name": "Evolu\u00e7\u00e3o Indoor",
                "board": "moon"
            }
        },
        {
            "type": "Feature",
            "geometry": {
                "type": "Point",
                "coordinates": [
                    -3.6696679,
                    40.3913437
                ]
            },
            "properties": {
                "name": "Boulder Madrid Moon Board",
                "board": "moon"
            }
        },
        {
            "type": "Feature",
            "geometry": {
                "type": "Point",
                "coordinates": [
                    23.7275388,
                    37.9838096
                ]
            },
            "properties": {
                "name": "The Wall Sport Climbing Center",
                "board": "moon"
            }
        },
        {
            "type": "Feature",
            "geometry": {
                "type": "Point",
                "coordinates": [
                    60.6057025,
                    56.83892609999999
                ]
            },
            "properties": {
                "name": "Krai sveta",
                "board": "moon"
            }
        },
        {
            "type": "Feature",
            "geometry": {
                "type": "Point",
                "coordinates": [
                    -112.4859842,
                    34.5603627
                ]
            },
            "properties": {
                "name": "Prescott Rocks and Rec",
                "board": "moon"
            }
        },
        {
            "type": "Feature",
            "geometry": {
                "type": "Point",
                "coordinates": [
                    -8.4997597,
                    42.1757535
                ]
            },
            "properties": {
                "name": "MOONkey board (calm&climb)",
                "board": "moon"
            }
        },
        {
            "type": "Feature",
            "geometry": {
                "type": "Point",
                "coordinates": [
                    -2.221575,
                    52.193636
                ]
            },
            "properties": {
                "name": "Redpoint Worcester",
                "board": "moon"
            }
        },
        {
            "type": "Feature",
            "geometry": {
                "type": "Point",
                "coordinates": [
                    19.8703194,
                    50.07906570000001
                ]
            },
            "properties": {
                "name": "Avatar Balicka Boulder",
                "board": "moon"
            }
        },
        {
            "type": "Feature",
            "geometry": {
                "type": "Point",
                "coordinates": [
                    14.4657356,
                    68.2079321
                ]
            },
            "properties": {
                "name": "Lofoten Tindeklubb",
                "board": "moon"
            }
        },
        {
            "type": "Feature",
            "geometry": {
                "type": "Point",
                "coordinates": [
                    16.9824829,
                    51.097688
                ]
            },
            "properties": {
                "name": "Fabryczna Boulder",
                "board": "moon"
            }
        },
        {
            "type": "Feature",
            "geometry": {
                "type": "Point",
                "coordinates": [
                    5.8886275,
                    45.6197566
                ]
            },
            "properties": {
                "name": "La Zipette",
                "board": "moon"
            }
        },
        {
            "type": "Feature",
            "geometry": {
                "type": "Point",
                "coordinates": [
                    103.7304532,
                    1.5800393
                ]
            },
            "properties": {
                "name": "Rockworld",
                "board": "moon"
            }
        },
        {
            "type": "Feature",
            "geometry": {
                "type": "Point",
                "coordinates": [
                    -75.73677010000002,
                    45.4468314
                ]
            },
            "properties": {
                "name": "Altitude Gym Gatineau",
                "board": "moon"
            }
        },
        {
            "type": "Feature",
            "geometry": {
                "type": "Point",
                "coordinates": [
                    12.6945121,
                    56.0464674
                ]
            },
            "properties": {
                "name": "Helsingborgs K2",
                "board": "moon"
            }
        },
        {
            "type": "Feature",
            "geometry": {
                "type": "Point",
                "coordinates": [
                    -73.95807669999999,
                    40.726433
                ]
            },
            "properties": {
                "name": "GP81 ",
                "board": "moon"
            }
        },
        {
            "type": "Feature",
            "geometry": {
                "type": "Point",
                "coordinates": [
                    9.164027899999999,
                    48.8347817
                ]
            },
            "properties": {
                "name": "rockerei",
                "board": "moon"
            }
        },
        {
            "type": "Feature",
            "geometry": {
                "type": "Point",
                "coordinates": [
                    9.3982751,
                    46.31051859999999
                ]
            },
            "properties": {
                "name": "boulder factory",
                "board": "moon"
            }
        },
        {
            "type": "Feature",
            "geometry": {
                "type": "Point",
                "coordinates": [
                    -43.9344931,
                    -19.9166813
                ]
            },
            "properties": {
                "name": "Mr. Board",
                "board": "moon"
            }
        },
        {
            "type": "Feature",
            "geometry": {
                "type": "Point",
                "coordinates": [
                    0,
                    0
                ]
            },
            "properties": {
                "name": "Fitbloc",
                "board": "moon"
            }
        },
        {
            "type": "Feature",
            "geometry": {
                "type": "Point",
                "coordinates": [
                    12.2759508,
                    57.1244904
                ]
            },
            "properties": {
                "name": "Varbergs Kl\u00e4tterklubb",
                "board": "moon"
            }
        },
        {
            "type": "Feature",
            "geometry": {
                "type": "Point",
                "coordinates": [
                    7.303860099999999,
                    45.0515199
                ]
            },
            "properties": {
                "name": "MONKEYBOARD",
                "board": "moon"
            }
        },
        {
            "type": "Feature",
            "geometry": {
                "type": "Point",
                "coordinates": [
                    -1.693494,
                    53.34023200000001
                ]
            },
            "properties": {
                "name": "The Adventure Hub",
                "board": "moon"
            }
        },
        {
            "type": "Feature",
            "geometry": {
                "type": "Point",
                "coordinates": [
                    6.0295648,
                    46.2592589
                ]
            },
            "properties": {
                "name": "cortigrimpe01",
                "board": "moon"
            }
        },
        {
            "type": "Feature",
            "geometry": {
                "type": "Point",
                "coordinates": [
                    17.1077478,
                    48.1485965
                ]
            },
            "properties": {
                "name": "Block Dock",
                "board": "moon"
            }
        },
        {
            "type": "Feature",
            "geometry": {
                "type": "Point",
                "coordinates": [
                    -3.801027599999999,
                    40.3468176
                ]
            },
            "properties": {
                "name": "The Climb - Centro Escalada Madrid",
                "board": "moon"
            }
        },
        {
            "type": "Feature",
            "geometry": {
                "type": "Point",
                "coordinates": [
                    139.4770721,
                    35.9461485
                ]
            },
            "properties": {
                "name": "Monolithe",
                "board": "moon"
            }
        },
        {
            "type": "Feature",
            "geometry": {
                "type": "Point",
                "coordinates": [
                    144.9218712,
                    -37.832795
                ]
            },
            "properties": {
                "name": "Blochaus Port Melbourne",
                "board": "moon"
            }
        },
        {
            "type": "Feature",
            "geometry": {
                "type": "Point",
                "coordinates": [
                    -79.7137826,
                    43.7006951
                ]
            },
            "properties": {
                "name": "Toprock Climbing",
                "board": "moon"
            }
        },
        {
            "type": "Feature",
            "geometry": {
                "type": "Point",
                "coordinates": [
                    17.1412726,
                    60.6748796
                ]
            },
            "properties": {
                "name": "G\u00e4strike Kl\u00e4tterklubb/DOME",
                "board": "moon"
            }
        },
        {
            "type": "Feature",
            "geometry": {
                "type": "Point",
                "coordinates": [
                    126.9945297,
                    37.4876288
                ]
            },
            "properties": {
                "name": "Gate1_Climbing",
                "board": "moon"
            }
        },
        {
            "type": "Feature",
            "geometry": {
                "type": "Point",
                "coordinates": [
                    9.476018,
                    55.483624
                ]
            },
            "properties": {
                "name": "Kolding Klatreklubs Moonboard",
                "board": "moon"
            }
        },
        {
            "type": "Feature",
            "geometry": {
                "type": "Point",
                "coordinates": [
                    8.723688899999999,
                    47.4988196
                ]
            },
            "properties": {
                "name": "BLOCKFELD Boulderpark",
                "board": "moon"
            }
        },
        {
            "type": "Feature",
            "geometry": {
                "type": "Point",
                "coordinates": [
                    -80.52031579999999,
                    43.4757042
                ]
            },
            "properties": {
                "name": "Grand River Rocks Waterloo",
                "board": "moon"
            }
        },
        {
            "type": "Feature",
            "geometry": {
                "type": "Point",
                "coordinates": [
                    12.3608041,
                    43.1093656
                ]
            },
            "properties": {
                "name": "Metropolitan Boulder ",
                "board": "moon"
            }
        },
        {
            "type": "Feature",
            "geometry": {
                "type": "Point",
                "coordinates": [
                    -83.69427600000002,
                    37.636834
                ]
            },
            "properties": {
                "name": "LEE COUNTY REC CENTER",
                "board": "moon"
            }
        },
        {
            "type": "Feature",
            "geometry": {
                "type": "Point",
                "coordinates": [
                    -73.4654844,
                    40.7876564
                ]
            },
            "properties": {
                "name": "Island Rock",
                "board": "moon"
            }
        },
        {
            "type": "Feature",
            "geometry": {
                "type": "Point",
                "coordinates": [
                    51.3889736,
                    35.6891975
                ]
            },
            "properties": {
                "name": "MoonclimbingIran",
                "board": "moon"
            }
        },
        {
            "type": "Feature",
            "geometry": {
                "type": "Point",
                "coordinates": [
                    -157.7423645,
                    21.3908231
                ]
            },
            "properties": {
                "name": "hawaii volcanic rock gym ",
                "board": "moon"
            }
        },
        {
            "type": "Feature",
            "geometry": {
                "type": "Point",
                "coordinates": [
                    9.412587,
                    45.694395
                ]
            },
            "properties": {
                "name": "Palestra CAI Merate",
                "board": "moon"
            }
        },
        {
            "type": "Feature",
            "geometry": {
                "type": "Point",
                "coordinates": [
                    11.2578173,
                    44.6191558
                ]
            },
            "properties": {
                "name": "KRO Board",
                "board": "moon"
            }
        },
        {
            "type": "Feature",
            "geometry": {
                "type": "Point",
                "coordinates": [
                    18.7279535,
                    49.2207614
                ]
            },
            "properties": {
                "name": "K2 \u017dILINA",
                "board": "moon"
            }
        },
        {
            "type": "Feature",
            "geometry": {
                "type": "Point",
                "coordinates": [
                    -8.4193897,
                    43.3499467
                ]
            },
            "properties": {
                "name": "Hangar4",
                "board": "moon"
            }
        },
        {
            "type": "Feature",
            "geometry": {
                "type": "Point",
                "coordinates": [
                    1.6145874,
                    41.5822964
                ]
            },
            "properties": {
                "name": "Ingravita",
                "board": "moon"
            }
        },
        {
            "type": "Feature",
            "geometry": {
                "type": "Point",
                "coordinates": [
                    8.1331486,
                    49.18795369999999
                ]
            },
            "properties": {
                "name": "Fitz Rocks \u2013 Kletterarena der Su\u0308dpfalz",
                "board": "moon"
            }
        },
        {
            "type": "Feature",
            "geometry": {
                "type": "Point",
                "coordinates": [
                    -49.3209849,
                    -16.7798436
                ]
            },
            "properties": {
                "name": "Escalada Buriti",
                "board": "moon"
            }
        },
        {
            "type": "Feature",
            "geometry": {
                "type": "Point",
                "coordinates": [
                    -5.9594907,
                    54.5791118
                ]
            },
            "properties": {
                "name": "BoulderWorld Belfast",
                "board": "moon"
            }
        },
        {
            "type": "Feature",
            "geometry": {
                "type": "Point",
                "coordinates": [
                    15.2906457,
                    37.0766896
                ]
            },
            "properties": {
                "name": "Vertical Climbing Center",
                "board": "moon"
            }
        },
        {
            "type": "Feature",
            "geometry": {
                "type": "Point",
                "coordinates": [
                    114.1676024,
                    22.2495738
                ]
            },
            "properties": {
                "name": "ATTIC V",
                "board": "moon"
            }
        },
        {
            "type": "Feature",
            "geometry": {
                "type": "Point",
                "coordinates": [
                    11.5975534,
                    44.8169827
                ]
            },
            "properties": {
                "name": "Deva Wall",
                "board": "moon"
            }
        },
        {
            "type": "Feature",
            "geometry": {
                "type": "Point",
                "coordinates": [
                    13.3422517,
                    42.3539044
                ]
            },
            "properties": {
                "name": "Moonboard BLOCKLAND",
                "board": "moon"
            }
        },
        {
            "type": "Feature",
            "geometry": {
                "type": "Point",
                "coordinates": [
                    11.16032,
                    43.4104405
                ]
            },
            "properties": {
                "name": "Block To Rock",
                "board": "moon"
            }
        },
        {
            "type": "Feature",
            "geometry": {
                "type": "Point",
                "coordinates": [
                    10.9011822,
                    44.643321
                ]
            },
            "properties": {
                "name": "Rock And Fire's Moonboard",
                "board": "moon"
            }
        },
        {
            "type": "Feature",
            "geometry": {
                "type": "Point",
                "coordinates": [
                    -77.4162671,
                    39.3907356
                ]
            },
            "properties": {
                "name": "The Boulder Yard",
                "board": "moon"
            }
        },
        {
            "type": "Feature",
            "geometry": {
                "type": "Point",
                "coordinates": [
                    5.9407413,
                    59.66699680000001
                ]
            },
            "properties": {
                "name": "Skakke",
                "board": "moon"
            }
        },
        {
            "type": "Feature",
            "geometry": {
                "type": "Point",
                "coordinates": [
                    4.8945398,
                    52.3666969
                ]
            },
            "properties": {
                "name": "Mountain Network Amsterdam",
                "board": "moon"
            }
        },
        {
            "type": "Feature",
            "geometry": {
                "type": "Point",
                "coordinates": [
                    2.099233,
                    41.5365584
                ]
            },
            "properties": {
                "name": "La Panxa del Bou",
                "board": "moon"
            }
        },
        {
            "type": "Feature",
            "geometry": {
                "type": "Point",
                "coordinates": [
                    10.4093318,
                    47.1484502
                ]
            },
            "properties": {
                "name": "Arlberg klettergruppe",
                "board": "moon"
            }
        },
        {
            "type": "Feature",
            "geometry": {
                "type": "Point",
                "coordinates": [
                    8.6370545,
                    49.88094719999999
                ]
            },
            "properties": {
                "name": "Boulderhaus Darmstadt",
                "board": "moon"
            }
        },
        {
            "type": "Feature",
            "geometry": {
                "type": "Point",
                "coordinates": [
                    144.3439997,
                    -38.1617913
                ]
            },
            "properties": {
                "name": "The Rock Adventure Centre",
                "board": "moon"
            }
        },
        {
            "type": "Feature",
            "geometry": {
                "type": "Point",
                "coordinates": [
                    139.4103369,
                    38.0597174
                ]
            },
            "properties": {
                "name": "HUT WALL",
                "board": "moon"
            }
        },
        {
            "type": "Feature",
            "geometry": {
                "type": "Point",
                "coordinates": [
                    -3.1406824,
                    51.4927989
                ]
            },
            "properties": {
                "name": "Boulders Cardiff",
                "board": "moon"
            }
        },
        {
            "type": "Feature",
            "geometry": {
                "type": "Point",
                "coordinates": [
                    0,
                    0
                ]
            },
            "properties": {
                "name": "Momentum Indoor Climbing - Lehi",
                "board": "moon"
            }
        },
        {
            "type": "Feature",
            "geometry": {
                "type": "Point",
                "coordinates": [
                    8.5356193,
                    49.5178159
                ]
            },
            "properties": {
                "name": "Boulderhaus Mannheim",
                "board": "moon"
            }
        },
        {
            "type": "Feature",
            "geometry": {
                "type": "Point",
                "coordinates": [
                    13.404954,
                    52.52000659999999
                ]
            },
            "properties": {
                "name": "Boulderklub Kreuzberg ",
                "board": "moon"
            }
        },
        {
            "type": "Feature",
            "geometry": {
                "type": "Point",
                "coordinates": [
                    9.7442984,
                    45.021136
                ]
            },
            "properties": {
                "name": "New MACACO",
                "board": "moon"
            }
        },
        {
            "type": "Feature",
            "geometry": {
                "type": "Point",
                "coordinates": [
                    -111.8024432,
                    40.7012062
                ]
            },
            "properties": {
                "name": "Momentum Millcreek",
                "board": "moon"
            }
        },
        {
            "type": "Feature",
            "geometry": {
                "type": "Point",
                "coordinates": [
                    18.0162502,
                    59.2903756
                ]
            },
            "properties": {
                "name": "Karbins Moonboard",
                "board": "moon"
            }
        },
        {
            "type": "Feature",
            "geometry": {
                "type": "Point",
                "coordinates": [
                    17.4347111,
                    68.43582769999999
                ]
            },
            "properties": {
                "name": "Kraft Treningsenter Narvik",
                "board": "moon"
            }
        },
        {
            "type": "Feature",
            "geometry": {
                "type": "Point",
                "coordinates": [
                    21.0678,
                    52.251055
                ]
            },
            "properties": {
                "name": "Obiekto Moon",
                "board": "moon"
            }
        },
        {
            "type": "Feature",
            "geometry": {
                "type": "Point",
                "coordinates": [
                    12.4963655,
                    41.9027835
                ]
            },
            "properties": {
                "name": "Asd BGOOD",
                "board": "moon"
            }
        },
        {
            "type": "Feature",
            "geometry": {
                "type": "Point",
                "coordinates": [
                    13.4528508,
                    52.4797091
                ]
            },
            "properties": {
                "name": "bouldergarten",
                "board": "moon"
            }
        },
        {
            "type": "Feature",
            "geometry": {
                "type": "Point",
                "coordinates": [
                    -49.2625023,
                    -25.4513226
                ]
            },
            "properties": {
                "name": "Campo Base",
                "board": "moon"
            }
        },
        {
            "type": "Feature",
            "geometry": {
                "type": "Point",
                "coordinates": [
                    -49.2625023,
                    -25.4513226
                ]
            },
            "properties": {
                "name": "Campo Base Ginasio de escalada",
                "board": "moon"
            }
        },
        {
            "type": "Feature",
            "geometry": {
                "type": "Point",
                "coordinates": [
                    27.558972,
                    53.9006011
                ]
            },
            "properties": {
                "name": "Plato Climbing Gym",
                "board": "moon"
            }
        },
        {
            "type": "Feature",
            "geometry": {
                "type": "Point",
                "coordinates": [
                    -106.6771632,
                    52.1304786
                ]
            },
            "properties": {
                "name": "Grip It Climbing Moonboard ",
                "board": "moon"
            }
        },
        {
            "type": "Feature",
            "geometry": {
                "type": "Point",
                "coordinates": [
                    28.8597918,
                    46.976995
                ]
            },
            "properties": {
                "name": "Chisinau Bouldering Project",
                "board": "moon"
            }
        },
        {
            "type": "Feature",
            "geometry": {
                "type": "Point",
                "coordinates": [
                    140.3596822,
                    37.40047759999999
                ]
            },
            "properties": {
                "name": "MOVEMENT Climbing Space",
                "board": "moon"
            }
        },
        {
            "type": "Feature",
            "geometry": {
                "type": "Point",
                "coordinates": [
                    140.3030609,
                    36.3479482
                ]
            },
            "properties": {
                "name": "vortex \u30dc\u30eb\u30c6\u30c3\u30af\u30b9",
                "board": "moon"
            }
        },
        {
            "type": "Feature",
            "geometry": {
                "type": "Point",
                "coordinates": [
                    140.3030609,
                    36.3479482
                ]
            },
            "properties": {
                "name": "vortex",
                "board": "moon"
            }
        },
        {
            "type": "Feature",
            "geometry": {
                "type": "Point",
                "coordinates": [
                    8.8431787,
                    47.2242898
                ]
            },
            "properties": {
                "name": "Quergang",
                "board": "moon"
            }
        },
        {
            "type": "Feature",
            "geometry": {
                "type": "Point",
                "coordinates": [
                    23.7411909,
                    38.0211906
                ]
            },
            "properties": {
                "name": "RockwayBoard",
                "board": "moon"
            }
        },
        {
            "type": "Feature",
            "geometry": {
                "type": "Point",
                "coordinates": [
                    -80.2971962,
                    43.41793759999999
                ]
            },
            "properties": {
                "name": "The Core Climbing Gym",
                "board": "moon"
            }
        },
        {
            "type": "Feature",
            "geometry": {
                "type": "Point",
                "coordinates": [
                    26.9871331,
                    49.422983
                ]
            },
            "properties": {
                "name": "Symbiosis",
                "board": "moon"
            }
        },
        {
            "type": "Feature",
            "geometry": {
                "type": "Point",
                "coordinates": [
                    140.3596822,
                    37.40047759999999
                ]
            },
            "properties": {
                "name": "TRAILROCK",
                "board": "moon"
            }
        },
        {
            "type": "Feature",
            "geometry": {
                "type": "Point",
                "coordinates": [
                    13.9034303,
                    47.4427795
                ]
            },
            "properties": {
                "name": "boulderraum.at | Alpenverein Gr\u00f6bming",
                "board": "moon"
            }
        },
        {
            "type": "Feature",
            "geometry": {
                "type": "Point",
                "coordinates": [
                    12.4774648,
                    55.74048080000001
                ]
            },
            "properties": {
                "name": "Bison Boulders",
                "board": "moon"
            }
        },
        {
            "type": "Feature",
            "geometry": {
                "type": "Point",
                "coordinates": [
                    -73.0463652,
                    -36.8109433
                ]
            },
            "properties": {
                "name": "ConceClimb",
                "board": "moon"
            }
        },
        {
            "type": "Feature",
            "geometry": {
                "type": "Point",
                "coordinates": [
                    -90.41325189999999,
                    38.6958687
                ]
            },
            "properties": {
                "name": "ULI Maryland Heights",
                "board": "moon"
            }
        },
        {
            "type": "Feature",
            "geometry": {
                "type": "Point",
                "coordinates": [
                    -112.0135902,
                    33.5812861
                ]
            },
            "properties": {
                "name": "Black Rock Bouldering Gym",
                "board": "moon"
            }
        },
        {
            "type": "Feature",
            "geometry": {
                "type": "Point",
                "coordinates": [
                    -112.0135902,
                    33.5812861
                ]
            },
            "properties": {
                "name": "Black Rock Bouldering",
                "board": "moon"
            }
        },
        {
            "type": "Feature",
            "geometry": {
                "type": "Point",
                "coordinates": [
                    149.1646271,
                    -35.3209807
                ]
            },
            "properties": {
                "name": "Blochaus",
                "board": "moon"
            }
        },
        {
            "type": "Feature",
            "geometry": {
                "type": "Point",
                "coordinates": [
                    8.97612,
                    48.25177
                ]
            },
            "properties": {
                "name": "Dolomiti-Boulderbox",
                "board": "moon"
            }
        },
        {
            "type": "Feature",
            "geometry": {
                "type": "Point",
                "coordinates": [
                    -117.8350809,
                    33.7289923
                ]
            },
            "properties": {
                "name": "Sender One SNA",
                "board": "moon"
            }
        },
        {
            "type": "Feature",
            "geometry": {
                "type": "Point",
                "coordinates": [
                    30.2427316,
                    59.9516929
                ]
            },
            "properties": {
                "name": "LU4 Climbing Gym",
                "board": "moon"
            }
        },
        {
            "type": "Feature",
            "geometry": {
                "type": "Point",
                "coordinates": [
                    127.0409539,
                    37.497738
                ]
            },
            "properties": {
                "name": "Climb Emotion",
                "board": "moon"
            }
        },
        {
            "type": "Feature",
            "geometry": {
                "type": "Point",
                "coordinates": [
                    9.5247899,
                    51.29799
                ]
            },
            "properties": {
                "name": "Vertical World",
                "board": "moon"
            }
        },
        {
            "type": "Feature",
            "geometry": {
                "type": "Point",
                "coordinates": [
                    -80.9971001,
                    29.1536202
                ]
            },
            "properties": {
                "name": "Daytona Climbing Company",
                "board": "moon"
            }
        },
        {
            "type": "Feature",
            "geometry": {
                "type": "Point",
                "coordinates": [
                    35.5323031,
                    33.9005875
                ]
            },
            "properties": {
                "name": "Flyp MoonBoard",
                "board": "moon"
            }
        },
        {
            "type": "Feature",
            "geometry": {
                "type": "Point",
                "coordinates": [
                    22.5120581,
                    51.2510308
                ]
            },
            "properties": {
                "name": "Kot\u0142ownia",
                "board": "moon"
            }
        },
        {
            "type": "Feature",
            "geometry": {
                "type": "Point",
                "coordinates": [
                    37.6172999,
                    55.755826
                ]
            },
            "properties": {
                "name": "Climb Lab",
                "board": "moon"
            }
        },
        {
            "type": "Feature",
            "geometry": {
                "type": "Point",
                "coordinates": [
                    4.8513889,
                    52.3925
                ]
            },
            "properties": {
                "name": "Boulderhal het Lab Amsterdam",
                "board": "moon"
            }
        },
        {
            "type": "Feature",
            "geometry": {
                "type": "Point",
                "coordinates": [
                    -87.91302400000001,
                    43.0248873
                ]
            },
            "properties": {
                "name": "Adventure Rock Moonboard",
                "board": "moon"
            }
        },
        {
            "type": "Feature",
            "geometry": {
                "type": "Point",
                "coordinates": [
                    4.323769899999999,
                    52.0695268
                ]
            },
            "properties": {
                "name": "Beest Boulders Den Haag",
                "board": "moon"
            }
        },
        {
            "type": "Feature",
            "geometry": {
                "type": "Point",
                "coordinates": [
                    -1.4158507,
                    54.91452529999999
                ]
            },
            "properties": {
                "name": "Sunderland Wall",
                "board": "moon"
            }
        },
        {
            "type": "Feature",
            "geometry": {
                "type": "Point",
                "coordinates": [
                    -1.4467433,
                    53.3992904
                ]
            },
            "properties": {
                "name": "Awesome Walls Sheffield 40",
                "board": "moon"
            }
        },
        {
            "type": "Feature",
            "geometry": {
                "type": "Point",
                "coordinates": [
                    19.0851399,
                    50.0982854
                ]
            },
            "properties": {
                "name": "Adrenalina",
                "board": "moon"
            }
        },
        {
            "type": "Feature",
            "geometry": {
                "type": "Point",
                "coordinates": [
                    -5.841565399999999,
                    37.352094
                ]
            },
            "properties": {
                "name": "WISECLIMB - CENTRO DE ESCALADA",
                "board": "moon"
            }
        },
        {
            "type": "Feature",
            "geometry": {
                "type": "Point",
                "coordinates": [
                    4.8561558,
                    52.3441057
                ]
            },
            "properties": {
                "name": "Beta Boulders Amsterdam",
                "board": "moon"
            }
        },
        {
            "type": "Feature",
            "geometry": {
                "type": "Point",
                "coordinates": [
                    9.208495,
                    49.172197
                ]
            },
            "properties": {
                "name": "Kletterarena",
                "board": "moon"
            }
        },
        {
            "type": "Feature",
            "geometry": {
                "type": "Point",
                "coordinates": [
                    120.3014353,
                    22.6272784
                ]
            },
            "properties": {
                "name": "Boulder Space",
                "board": "moon"
            }
        },
        {
            "type": "Feature",
            "geometry": {
                "type": "Point",
                "coordinates": [
                    -79.8950428,
                    43.2585528
                ]
            },
            "properties": {
                "name": "Gravity Climbing Gym - Hamilton",
                "board": "moon"
            }
        },
        {
            "type": "Feature",
            "geometry": {
                "type": "Point",
                "coordinates": [
                    13.7076291,
                    46.7978307
                ]
            },
            "properties": {
                "name": "Boulderbox Radenthein",
                "board": "moon"
            }
        },
        {
            "type": "Feature",
            "geometry": {
                "type": "Point",
                "coordinates": [
                    8.5523882,
                    60.8630354
                ]
            },
            "properties": {
                "name": "Hemsedal Klatreklubb",
                "board": "moon"
            }
        },
        {
            "type": "Feature",
            "geometry": {
                "type": "Point",
                "coordinates": [
                    17.2479554,
                    46.7654716
                ]
            },
            "properties": {
                "name": "ROX, Keszthely",
                "board": "moon"
            }
        },
        {
            "type": "Feature",
            "geometry": {
                "type": "Point",
                "coordinates": [
                    -1.1951582,
                    52.938636
                ]
            },
            "properties": {
                "name": "David Ross Sports Village",
                "board": "moon"
            }
        },
        {
            "type": "Feature",
            "geometry": {
                "type": "Point",
                "coordinates": [
                    12.5683372,
                    55.6760968
                ]
            },
            "properties": {
                "name": "N\u00f8rrebro Klatreklub (NKK)",
                "board": "moon"
            }
        },
        {
            "type": "Feature",
            "geometry": {
                "type": "Point",
                "coordinates": [
                    24.8880823,
                    60.16085390000001
                ]
            },
            "properties": {
                "name": "Boulderkeskus Kino",
                "board": "moon"
            }
        },
        {
            "type": "Feature",
            "geometry": {
                "type": "Point",
                "coordinates": [
                    -77.9652098,
                    39.5048453
                ]
            },
            "properties": {
                "name": "Climbing New Heights Moonboard",
                "board": "moon"
            }
        },
        {
            "type": "Feature",
            "geometry": {
                "type": "Point",
                "coordinates": [
                    -0.3908812,
                    42.1378979
                ]
            },
            "properties": {
                "name": "Nowa Moonboard",
                "board": "moon"
            }
        },
        {
            "type": "Feature",
            "geometry": {
                "type": "Point",
                "coordinates": [
                    21.9638572,
                    47.046159
                ]
            },
            "properties": {
                "name": "Crux Holds Oradea Climbing Gym ",
                "board": "moon"
            }
        },
        {
            "type": "Feature",
            "geometry": {
                "type": "Point",
                "coordinates": [
                    14.4972189,
                    46.0731693
                ]
            },
            "properties": {
                "name": "Bolder Scena Moonboard",
                "board": "moon"
            }
        },
        {
            "type": "Feature",
            "geometry": {
                "type": "Point",
                "coordinates": [
                    139.7355048,
                    36.0227505
                ]
            },
            "properties": {
                "name": "OKKUROCK",
                "board": "moon"
            }
        },
        {
            "type": "Feature",
            "geometry": {
                "type": "Point",
                "coordinates": [
                    11.0146655,
                    50.9615266
                ]
            },
            "properties": {
                "name": "Blockpark Moonboard",
                "board": "moon"
            }
        },
        {
            "type": "Feature",
            "geometry": {
                "type": "Point",
                "coordinates": [
                    18.4221358,
                    47.18602620000001
                ]
            },
            "properties": {
                "name": "Rotpunkt",
                "board": "moon"
            }
        },
        {
            "type": "Feature",
            "geometry": {
                "type": "Point",
                "coordinates": [
                    105.8415127,
                    21.0556469
                ]
            },
            "properties": {
                "name": "VietClimb MoonBoard",
                "board": "moon"
            }
        },
        {
            "type": "Feature",
            "geometry": {
                "type": "Point",
                "coordinates": [
                    10.2118019,
                    45.5415526
                ]
            },
            "properties": {
                "name": "Mad Climbers",
                "board": "moon"
            }
        },
        {
            "type": "Feature",
            "geometry": {
                "type": "Point",
                "coordinates": [
                    -49.2568971,
                    -25.3956182
                ]
            },
            "properties": {
                "name": "UBT Escalada CWB",
                "board": "moon"
            }
        },
        {
            "type": "Feature",
            "geometry": {
                "type": "Point",
                "coordinates": [
                    8.3416211,
                    44.1689028
                ]
            },
            "properties": {
                "name": "Supergiu1",
                "board": "moon"
            }
        },