[
    {
        "Name": "The School Room",
        "Description": "The original MoonBoard in the legendary School Room. \r\n\r\nThe School Room, Sheffield is a high spec members-only training facility for intermediate to advanced climbers aged 18+ who wish to improve their strength and endurance for climbing. \r\n\r\nOpen 24/7, 7-days a week.",
        "Image": "/Content/Account/Users/MoonBoards/SchoolRoom.jpg",
        "Latitude": 53.386304,
        "Longitude": -1.47619,
        "IsCommercial": true,
        "IsLed": true,
        "LatLng": [
            53.386304,
            -1.47619
        ]
    },
    {
        "Name": "the warehouse",
        "Description": "Temperature dependent Moonboard out in a cow barn...",
        "Image": "/Content/Account/Users/MoonBoards/the_warehouse_hiRes.jpg",
        "Latitude": 41.7001009,
        "Longitude": -71.4161671,
        "IsCommercial": false,
        "IsLed": false,
        "LatLng": [
            41.7001009,
            -71.4161671
        ]
    },
    {
        "Name": "Craggy Island Moonboard",
        "Description": "This Moonboard is located inside Craggy Island Guildford and offers a selection of different hold sets open to the public 7 days a week.",
        "Image": "/Content/Account/Users/MoonBoards/Craggy_Island_Moonboard_hiRes.jpg",
        "Latitude": 51.23622,
        "Longitude": -0.570409,
        "IsCommercial": true,
        "IsLed": false,
        "LatLng": [
            51.23622,
            -0.570409
        ]
    },
    {
        "Name": "Marulianus Moon Board",
        "Description": "Original set...",
        "Image": "/Content/Account/Users/MoonBoards/Marulianus_Moon_Board_hiRes.jpg",
        "Latitude": 43.5185132,
        "Longitude": 16.4317921,
        "IsCommercial": false,
        "IsLed": false,
        "LatLng": [
            43.5185132,
            16.4317921
        ]
    },
    {
        "Name": "The Garage",
        "Description": "",
        "Image": "/Content/Account/Users/MoonBoards/moonclimbing.png",
        "Latitude": -51.6977129,
        "Longitude": -57.8516627,
        "IsCommercial": false,
        "IsLed": false,
        "LatLng": [
            -51.6977129,
            -57.8516627
        ]
    },
    {
        "Name": "Studio Wall",
        "Description": "Full sized moon board built in my studio apartment, just barely fit! We made a platform in the back and put a twin bed on top, which is great. The full sized bed underneath sits on two crash pads. When its time to session the board we simply strip the bed and pull out the mattress. Been dreaming of this wall for five years!",
        "Image": "/Content/Account/Users/MoonBoards/Studio_Wall_hiRes.jpg",
        "Latitude": 32.0835407,
        "Longitude": -81.0998342,
        "IsCommercial": false,
        "IsLed": false,
        "LatLng": [
            32.0835407,
            -81.0998342
        ]
    },
    {
        "Name": "Jimmys MoonWall",
        "Description": "Great training system.",
        "Image": "/Content/Account/Users/MoonBoards/Jimmys_MoonWall_hiRes.jpg",
        "Latitude": 59.1276852,
        "Longitude": 9.7708035,
        "IsCommercial": false,
        "IsLed": false,
        "LatLng": [
            59.1276852,
            9.7708035
        ]
    },
    {
        "Name": "The Ranch",
        "Description": "we make the board since 2007.\r\n",
        "Image": "/Content/Account/Users/MoonBoards/The_Ranch_hiRes.jpg",
        "Latitude": 32.8031004,
        "Longitude": 130.7078911,
        "IsCommercial": true,
        "IsLed": false,
        "LatLng": [
            32.8031004,
            130.7078911
        ]
    },
    {
        "Name": "The Barn",
        "Description": "Brand New!",
        "Image": "/Content/Account/Users/MoonBoards/The_Barn_hiRes.jpg",
        "Latitude": 45.7969221,
        "Longitude": 6.9689626,
        "IsCommercial": false,
        "IsLed": false,
        "LatLng": [
            45.7969221,
            6.9689626
        ]
    },
    {
        "Name": "The Matrix",
        "Description": "Set up with set A and B setup 2.",
        "Image": "/Content/Account/Users/MoonBoards/The_Matrix_hiRes.jpg",
        "Latitude": 60.0970945,
        "Longitude": 19.9348339,
        "IsCommercial": true,
        "IsLed": false,
        "LatLng": [
            60.0970945,
            19.9348339
        ]
    },
    {
        "Name": "Cryptid Wall",
        "Description": "Rotates around the midpoint. Angle is adjustable from -5 degrees (slab) to 70 degrees (roof). Kick board hangs on a detachable hinge. Originally, I was excited to have a severely overhanging wall, but lately I keep it at 25 or 30 degrees and train for endurance. ",
        "Image": "/Content/Account/Users/MoonBoards/Cryptid_Wall_hiRes.jpg",
        "Latitude": 41.792654,
        "Longitude": -123.3785705,
        "IsCommercial": false,
        "IsLed": false,
        "LatLng": [
            41.792654,
            -123.3785705
        ]
    },
    {
        "Name": "Orust Moon",
        "Description": "Full size moon board with a 32 cm kicker. Roof height 2.90m.",
        "Image": "/Content/Account/Users/MoonBoards/Orust_Moon_hiRes.jpg",
        "Latitude": 58.1802671,
        "Longitude": 11.6759839,
        "IsCommercial": false,
        "IsLed": false,
        "LatLng": [
            58.1802671,
            11.6759839
        ]
    },
    {
        "Name": "My woodie",
        "Description": "I built this bouldering cave in my house before I knew about moonboards.  This pre-existing 12x8ft/25deg section was easy to modify with a moonboard pattern.",
        "Image": "/Content/Account/Users/MoonBoards/My_woodie_hiRes.jpg",
        "Latitude": 32.5251516,
        "Longitude": -93.7501789,
        "IsCommercial": false,
        "IsLed": false,
        "LatLng": [
            32.5251516,
            -93.7501789
        ]
    },
    {
        "Name": "The Man Cave",
        "Description": "Got bored one winter and built  a 20 degree overhang in the garage.  Got bored the next winter and built a campus board. Developed a bit of a climbing hold buying addiction and ran out of space to put them up.  Built a Moon board...",
        "Image": "/Content/Account/Users/MoonBoards/The_Man_Cave_hiRes.jpg",
        "Latitude": -41.2864603,
        "Longitude": 174.776236,
        "IsCommercial": false,
        "IsLed": false,
        "LatLng": [
            -41.2864603,
            174.776236
        ]
    },
    {
        "Name": "Capanno Boulder",
        "Description": "Set A + Set B \r\n40 degrees overhanging \r\nOriginal dimension",
        "Image": "/Content/Account/Users/MoonBoards/capanno_hiRes.jpg",
        "Latitude": 45.611892,
        "Longitude": 8.8531265,
        "IsCommercial": true,
        "IsLed": false,
        "LatLng": [
            45.611892,
            8.8531265
        ]
    },
    {
        "Name": "The Observatory",
        "Description": "Free standing Moon board, built to spec except for a slightly shorter kicker. Yellow and black Moon sets, plus a smattering of Friction, Metolius, and Teknik holds to fill in the gaps. Seasonal resets but new problems get taped every session. We usually have ~40 problems set. ",
        "Image": "/Content/Account/Users/MoonBoards/The_Observatory_hiRes-1.jpg",
        "Latitude": 44.6487635,
        "Longitude": -63.5752387,
        "IsCommercial": false,
        "IsLed": false,
        "LatLng": [
            44.6487635,
            -63.5752387
        ]
    },
    {
        "Name": "Ergo",
        "Description": "outdoor wall adjustable tilt",
        "Image": "/Content/Account/Users/MoonBoards/Ergo_hiRes.jpg",
        "Latitude": 63.3374879,
        "Longitude": 14.2219345,
        "IsCommercial": false,
        "IsLed": false,
        "LatLng": [
            63.3374879,
            14.2219345
        ]
    },
    {
        "Name": "Power, Strength, and Movement Training Lab",
        "Description": "Full sized Moon Board with only 20 cm kicker. The short kicker makes the start of each problem slightly more difficult.",
        "Image": "/Content/Account/Users/MoonBoards/Power_Strength_and_Movement_Training_Lab_hiRes.jpg",
        "Latitude": 44.2910915,
        "Longitude": -105.5022205,
        "IsCommercial": false,
        "IsLed": false,
        "LatLng": [
            44.2910915,
            -105.5022205
        ]
    },
    {
        "Name": "RockFitness MoonBoard",
        "Description": "Located at RockFitness CLimbing gym",
        "Image": "/Content/Account/Users/MoonBoards/moonclimbing.png",
        "Latitude": 33.5539143,
        "Longitude": -117.2139232,
        "IsCommercial": true,
        "IsLed": false,
        "LatLng": [
            33.5539143,
            -117.2139232
        ]
    },
    {
        "Name": "firstaverocks",
        "Description": "set to spec.  currently set with power set a and b problems.",
        "Image": "/Content/Account/Users/MoonBoards/firstaverocks_hiRes.jpg",
        "Latitude": 33.5206608,
        "Longitude": -86.80249,
        "IsCommercial": false,
        "IsLed": false,
        "LatLng": [
            33.5206608,
            -86.80249
        ]
    },
    {
        "Name": "Groom Creek",
        "Description": "Free standing, built to specs for $150 using reclaimed timbers and recycled paint.  Equipped with Original Holds.  Setup #3 problem #1 is shown.",
        "Image": "/Content/Account/Users/MoonBoards/Groom_Creek_hiRes.jpg",
        "Latitude": 34.4755807,
        "Longitude": -112.4312792,
        "IsCommercial": false,
        "IsLed": false,
        "LatLng": [
            34.4755807,
            -112.4312792
        ]
    },
    {
        "Name": "Grau's Garage",
        "Description": "My board is in my garage. Contact me if you want to climb with me sometime.",
        "Image": "/Content/Account/Users/MoonBoards/Graus_Garage_hiRes.jpg",
        "Latitude": 41.7317884,
        "Longitude": -93.6001278,
        "IsCommercial": false,
        "IsLed": false,
        "LatLng": [
            41.7317884,
            -93.6001278
        ]
    },
    {
        "Name": "Kn\u00c3\u00bcppelstadl",
        "Description": "Harder than the original! 45 degrees overhanging!",
        "Image": "/Content/Account/Users/MoonBoards/Kn\u00c3\u00bcppelstadl_hiRes.jpg",
        "Latitude": 46.9141701,
        "Longitude": 14.4310313,
        "IsCommercial": false,
        "IsLed": false,
        "LatLng": [
            46.9141701,
            14.4310313
        ]
    },
    {
        "Name": "L\u00c3\u00b8ksa garage",
        "Description": "Limited heating, even in mid winter, provides that genuine feeling of Norwegian outdoor bouldering.",
        "Image": "/Content/Account/Users/MoonBoards/L\u00c3\u00b8ksa_garage_hiRes.jpg",
        "Latitude": 59.5216705,
        "Longitude": 10.6884938,
        "IsCommercial": false,
        "IsLed": false,
        "LatLng": [
            59.5216705,
            10.6884938
        ]
    },
    {
        "Name": "Pull Harder",
        "Description": "Training board for www.pullharder.org\r\n",
        "Image": "/Content/Account/Users/MoonBoards/Pull_Harder_hiRes.jpg",
        "Latitude": 32.715738,
        "Longitude": -117.1610838,
        "IsCommercial": true,
        "IsLed": false,
        "LatLng": [
            32.715738,
            -117.1610838
        ]
    },
    {
        "Name": "Green Wall",
        "Description": "Only 25\u00c2\u00ba overhanging, but still challenging for my son Elias and me.",
        "Image": "/Content/Account/Users/MoonBoards/Green_Wall_hiRes.jpg",
        "Latitude": 47.070714,
        "Longitude": 15.439504,
        "IsCommercial": false,
        "IsLed": false,
        "LatLng": [
            47.070714,
            15.439504
        ]
    },
    {
        "Name": "Aquarama",
        "Description": "Aquarama sports centre",
        "Image": "/Content/Account/Users/MoonBoards/Aquarama_hiRes.jpg",
        "Latitude": 58.1599119,
        "Longitude": 8.0182064,
        "IsCommercial": true,
        "IsLed": false,
        "LatLng": [
            58.1599119,
            8.0182064
        ]
    },
    {
        "Name": "The Attic",
        "Description": "For the rainy days in Belgium!",
        "Image": "/Content/Account/Users/MoonBoards/The_Attic_hiRes.jpg",
        "Latitude": 51.0297,
        "Longitude": 5.03716,
        "IsCommercial": true,
        "IsLed": false,
        "LatLng": [
            51.0297,
            5.03716
        ]
    },
    {
        "Name": "Tramontana",
        "Description": "First moonboard in St Petersburg. 2 original sets.",
        "Image": "/Content/Account/Users/MoonBoards/Tramontana_hiRes.jpg",
        "Latitude": 59.9342802,
        "Longitude": 30.3350986,
        "IsCommercial": true,
        "IsLed": false,
        "LatLng": [
            59.9342802,
            30.3350986
        ]
    },
    {
        "Name": "Sleins Moonboard",
        "Description": "Outdoor Moonboard ",
        "Image": "/Content/Account/Users/MoonBoards/IMG_0315.jpg.jpg",
        "Latitude": 51.1319702,
        "Longitude": 3.6789117,
        "IsCommercial": false,
        "IsLed": false,
        "LatLng": [
            51.1319702,
            3.6789117
        ]
    },
    {
        "Name": "MACACO",
        "Description": "summer work to built this new wall, to have fixed measurement to work on and a bit of challenging problems!",
        "Image": "/Content/Account/Users/MoonBoards/MACACO_hiRes.jpg",
        "Latitude": 45.0526206,
        "Longitude": 9.6929845,
        "IsCommercial": false,
        "IsLed": false,
        "LatLng": [
            45.0526206,
            9.6929845
        ]
    },
    {
        "Name": "Boulderkeskus Pasila",
        "Description": "Best place to train in Helsinki. There is also big bouldering gym!",
        "Image": "/Content/Account/Users/MoonBoards/Boulderkeskus_Pasila_hiRes.jpg",
        "Latitude": 60.1698557,
        "Longitude": 24.938379,
        "IsCommercial": true,
        "IsLed": false,
        "LatLng": [
            60.1698557,
            24.938379
        ]
    },
    {
        "Name": "Fire Wall",
        "Description": "",
        "Image": "/Content/Account/Users/MoonBoards/Fire_Wall_hiRes.jpg",
        "Latitude": 50.2057635,
        "Longitude": -125.2682421,
        "IsCommercial": false,
        "IsLed": false,
        "LatLng": [
            50.2057635,
            -125.2682421
        ]
    },
    {
        "Name": "The Board",
        "Description": "set with set up 1 of original school hold and problem from training set A",
        "Image": "/Content/Account/Users/MoonBoards/The_Board_hiRes.jpg",
        "Latitude": 34.014264,
        "Longitude": -86.0066386,
        "IsCommercial": false,
        "IsLed": false,
        "LatLng": [
            34.014264,
            -86.0066386
        ]
    },
    {
        "Name": "Der Stadel",
        "Description": "Current Set-Up:\r\nSchool holds B and some problems from the orginal school holds between.",
        "Image": "/Content/Account/Users/MoonBoards/Der_Stadel_hiRes.jpg",
        "Latitude": 48.6468872,
        "Longitude": 10.5422614,
        "IsCommercial": false,
        "IsLed": false,
        "LatLng": [
            48.6468872,
            10.5422614
        ]
    },
    {
        "Name": "the nursery",
        "Description": "white",
        "Image": "/Content/Account/Users/MoonBoards/the_nursery_hiRes.jpg",
        "Latitude": 51.270363,
        "Longitude": 0.522699,
        "IsCommercial": false,
        "IsLed": false,
        "LatLng": [
            51.270363,
            0.522699
        ]
    },
    {
        "Name": "Eshaness Schoolroom",
        "Description": "Training venue for Shetlands handful of boulderers.",
        "Image": "/Content/Account/Users/MoonBoards/Eshaness_Schoolroom_hiRes.jpg",
        "Latitude": 60.5296507,
        "Longitude": -1.2659408,
        "IsCommercial": true,
        "IsLed": false,
        "LatLng": [
            60.5296507,
            -1.2659408
        ]
    },
    {
        "Name": "Garden Wall",
        "Description": "Built it at Christmas and have been training on it ever since!",
        "Image": "/Content/Account/Users/MoonBoards/Garden_Wall_hiRes.jpg",
        "Latitude": 50.82253,
        "Longitude": -0.137163,
        "IsCommercial": false,
        "IsLed": false,
        "LatLng": [
            50.82253,
            -0.137163
        ]
    },
    {
        "Name": "The Climb",
        "Description": "The Moon Board is perfect for training power and strength. With the extension where you can make large boulders",
        "Image": "/Content/Account/Users/MoonBoards/The_Climb_hiRes.jpg",
        "Latitude": 40.4167754,
        "Longitude": -3.7037902,
        "IsCommercial": true,
        "IsLed": false,
        "LatLng": [
            40.4167754,
            -3.7037902
        ]
    },
    {
        "Name": "Fred",
        "Description": "Private board of the Cujic family",
        "Image": "/Content/Account/Users/MoonBoards/Fred_hiRes.jpg",
        "Latitude": 45.7967384,
        "Longitude": 15.7762862,
        "IsCommercial": false,
        "IsLed": false,
        "LatLng": [
            45.7967384,
            15.7762862
        ]
    },
    {
        "Name": "WALLSTREET",
        "Description": "that kanji mean moon.\r\n",
        "Image": "/Content/Account/Users/MoonBoards/WALLSTREET_hiRes.jpg",
        "Latitude": 36.3894816,
        "Longitude": 139.0634281,
        "IsCommercial": false,
        "IsLed": false,
        "LatLng": [
            36.3894816,
            139.0634281
        ]
    },
    {
        "Name": "GRAVITY VAULT",
        "Description": "Current Set-Up: \r\nBen Moon Set B-19 Problems \r\nBen Moon Original Holds set by Brayton Holman",
        "Image": "/Content/Account/Users/MoonBoards/GRAVITY_VAULT_hiRes.jpg",
        "Latitude": 41.0584299,
        "Longitude": -74.0984756,
        "IsCommercial": true,
        "IsLed": false,
        "LatLng": [
            41.0584299,
            -74.0984756
        ]
    },
    {
        "Name": "KUOTA 8.10",
        "Description": "Over the top! Enjoy it",
        "Image": "/Content/Account/Users/MoonBoards/KUOTA_8.10_hiRes.jpg",
        "Latitude": 44.8845906,
        "Longitude": 7.3306676,
        "IsCommercial": true,
        "IsLed": false,
        "LatLng": [
            44.8845906,
            7.3306676
        ]
    },
    {
        "Name": "PARBAT",
        "Description": "First MOON BOARD in Poland  - bouldering wall \"PARBAT\"  \r\n",
        "Image": "/Content/Account/Users/MoonBoards/PARBAT_hiRes.jpg",
        "Latitude": 50.0646501,
        "Longitude": 19.9449799,
        "IsCommercial": true,
        "IsLed": false,
        "LatLng": [
            50.0646501,
            19.9449799
        ]
    },
    {
        "Name": "Kl\u00c3\u00a4tterlabbet",
        "Description": "NEWBUILT\r\nS.H.1-40 \r\nsetup 6\r\nS.H. 50-99 \r\nSetup 1 \r\nS.H. 100-140\r\nSetup 1",
        "Image": "/Content/Account/Users/MoonBoards/Kl\u00c3\u00a4tterlabbet_hiRes.jpg",
        "Latitude": 57.70887,
        "Longitude": 11.97456,
        "IsCommercial": false,
        "IsLed": false,
        "LatLng": [
            57.70887,
            11.97456
        ]
    },
    {
        "Name": "Garden Moon Board",
        "Description": "Full size weatherproof board build to the website spec.\r\nSchool set b - setup 2\r\nPlus some holds for my kids.",
        "Image": "/Content/Account/Users/MoonBoards/Garden_Moon_Board_hiRes.jpg",
        "Latitude": 51.386322,
        "Longitude": 0.551438,
        "IsCommercial": false,
        "IsLed": false,
        "LatLng": [
            51.386322,
            0.551438
        ]
    },
    {
        "Name": "Jayhawk Board",
        "Description": "The board is built to spec except the kicker is shorter to give me room for all the climbing surface.",
        "Image": "/Content/Account/Users/MoonBoards/Jayhawk_Board_hiRes.jpg",
        "Latitude": 38.8813958,
        "Longitude": -94.8191285,
        "IsCommercial": false,
        "IsLed": false,
        "LatLng": [
            38.8813958,
            -94.8191285
        ]
    },
    {
        "Name": "At The Bottom of the Garden",
        "Description": "It is outside at the bottom of the garden!\r\n\r\nI've just put up hold setup 4 and looking forward to getting my first grade 7. Really helping to save money on wall fees and giving loads of motivation after a four year break from climbing.",
        "Image": "/Content/Account/Users/MoonBoards/At_The_Bottom_of_the_Garden_hiRes.jpg",
        "Latitude": 50.9097004,
        "Longitude": -1.4043509,
        "IsCommercial": false,
        "IsLed": false,
        "LatLng": [
            50.9097004,
            -1.4043509
        ]
    },
    {
        "Name": "VOLNY",
        "Description": "Climbing Gym VOLNY\r\n\r\n",
        "Image": "/Content/Account/Users/MoonBoards/VOLNY_hiRes.jpg",
        "Latitude": 35.6894875,
        "Longitude": 139.6917064,
        "IsCommercial": true,
        "IsLed": false,
        "LatLng": [
            35.6894875,
            139.6917064
        ]
    },
    {
        "Name": "B.K.L.",
        "Description": "Built for scientific investigations, right in the center of Luxembourg City.",
        "Image": "/Content/Account/Users/MoonBoards/B.K.L._hiRes.jpg",
        "Latitude": 49.815273,
        "Longitude": 6.129583,
        "IsCommercial": true,
        "IsLed": false,
        "LatLng": [
            49.815273,
            6.129583
        ]
    },
    {
        "Name": "Rimplas",
        "Description": "Built to specs with set A and B of holds.",
        "Image": "/Content/Account/Users/MoonBoards/Rimplas_original.jpg",
        "Latitude": 44.063683,
        "Longitude": 7.131591,
        "IsCommercial": false,
        "IsLed": false,
        "LatLng": [
            44.063683,
            7.131591
        ]
    },
    {
        "Name": "Rockspot",
        "Description": "newest moonboard in Italy, powered by www.cruxmove.it",
        "Image": "/Content/Account/Users/MoonBoards/Rockspot_hiRes.jpg",
        "Latitude": 45.4654219,
        "Longitude": 9.1859243,
        "IsCommercial": true,
        "IsLed": false,
        "LatLng": [
            45.4654219,
            9.1859243
        ]
    },
    {
        "Name": "Illyria's Board",
        "Description": "Gym in Surry Hills, Sydney",
        "Image": "/Content/Account/Users/MoonBoards/Illyrias_Board_hiRes.jpg",
        "Latitude": -33.8688197,
        "Longitude": 151.2092955,
        "IsCommercial": true,
        "IsLed": false,
        "LatLng": [
            -33.8688197,
            151.2092955
        ]
    },
    {
        "Name": "Voyager",
        "Description": "Energize!",
        "Image": "/Content/Account/Users/MoonBoards/moonclimbing.png",
        "Latitude": 35.0853336,
        "Longitude": -106.6055534,
        "IsCommercial": true,
        "IsLed": false,
        "LatLng": [
            35.0853336,
            -106.6055534
        ]
    },
    {
        "Name": "Kendal Board",
        "Description": "Lakeland Climbing Centre",
        "Image": "/Content/Account/Users/MoonBoards/kendal-wall_hiRes.jpg",
        "Latitude": 54.328006,
        "Longitude": -2.74629,
        "IsCommercial": true,
        "IsLed": false,
        "LatLng": [
            54.328006,
            -2.74629
        ]
    },
    {
        "Name": "University of West Florida",
        "Description": "",
        "Image": "/Content/Account/Users/MoonBoards/University_of_West_Florida_hiRes.jpg",
        "Latitude": 27.6648274,
        "Longitude": -81.5157535,
        "IsCommercial": true,
        "IsLed": false,
        "LatLng": [
            27.6648274,
            -81.5157535
        ]
    },
    {
        "Name": "power wall",
        "Description": "30 degrees to 45 degree board, 16 feet by 9 feet.",
        "Image": "/Content/Account/Users/MoonBoards/power_wall_hiRes.jpg",
        "Latitude": 33.4936391,
        "Longitude": -117.1483648,
        "IsCommercial": false,
        "IsLed": false,
        "LatLng": [
            33.4936391,
            -117.1483648
        ]
    },
    {
        "Name": "GEKOCLIMB MOONBOARD",
        "Description": "Set A + Set B",
        "Image": "/Content/Account/Users/MoonBoards/GEKOCLIMB_MOONBOARD_hiRes.jpg",
        "Latitude": 44.647128,
        "Longitude": 10.9252269,
        "IsCommercial": true,
        "IsLed": false,
        "LatLng": [
            44.647128,
            10.9252269
        ]
    },
    {
        "Name": "Stitch MoonBoard",
        "Description": "Original Size MoonBoard\r\nHold Setups: \r\n\r\nSchool Holds Set B And School Holds Set A // Setup 3 Lucas Dourdourekas\r\n",
        "Image": "/Content/Account/Users/MoonBoards/Stitch_MoonBoard_hiRes.jpg",
        "Latitude": 41.9027835,
        "Longitude": 12.4963655,
        "IsCommercial": false,
        "IsLed": false,
        "LatLng": [
            41.9027835,
            12.4963655
        ]
    },
    {
        "Name": "BLOKHAUS",
        "Description": "Adress:\r\nPolska, Pozna\u00c5\u201e\r\n\u00c5\u0161w. Micha\u00c5\u201aa 100",
        "Image": "/Content/Account/Users/MoonBoards/BLOKHAUS.jpg",
        "Latitude": 52.406374,
        "Longitude": 16.9251681,
        "IsCommercial": true,
        "IsLed": false,
        "LatLng": [
            52.406374,
            16.9251681
        ]
    },
    {
        "Name": "Brighter Moonboard",
        "Description": "LEDs light up the problems",
        "Image": "/Content/Account/Users/MoonBoards/BrighterMoonboardsm.jpg_hiRes.jpg",
        "Latitude": 61.2180556,
        "Longitude": -149.9002778,
        "IsCommercial": false,
        "IsLed": false,
        "LatLng": [
            61.2180556,
            -149.9002778
        ]
    },
    {
        "Name": "SPK Grip Moonboard",
        "Description": "Placed in the top of water-tower in park Borik, Bjelovar. Training facility for members of SPK GRIP Bjelovar. ",
        "Image": "/Content/Account/Users/MoonBoards/SPK_Grip_Moonboard_hiRes.jpg",
        "Latitude": 45.8987972,
        "Longitude": 16.8423093,
        "IsCommercial": true,
        "IsLed": false,
        "LatLng": [
            45.8987972,
            16.8423093
        ]
    },
    {
        "Name": "moon",
        "Description": "Tonni",
        "Image": "/Content/Account/Users/MoonBoards/moon_hiRes.jpg",
        "Latitude": 36.9533092,
        "Longitude": 26.9798133,
        "IsCommercial": false,
        "IsLed": false,
        "LatLng": [
            36.9533092,
            26.9798133
        ]
    },
    {
        "Name": "The Wall",
        "Description": "First moonboard in Tula.",
        "Image": "/Content/Account/Users/MoonBoards/The_Wall_hiRes.jpg",
        "Latitude": 54.204836,
        "Longitude": 37.6184915,
        "IsCommercial": false,
        "IsLed": false,
        "LatLng": [
            54.204836,
            37.6184915
        ]
    },
    {
        "Name": "Schmitten Power Room",
        "Description": "Home climbing wall\r\n\r\nSetA+SetB - Setup1 +\r\nOriginal School Holds Setup5",
        "Image": "/Content/Account/Users/MoonBoards/Schmitten_Power_Room_hiRes.jpg",
        "Latitude": 50.2696397,
        "Longitude": 8.4422899,
        "IsCommercial": true,
        "IsLed": false,
        "LatLng": [
            50.2696397,
            8.4422899
        ]
    },
    {
        "Name": "Lab 40 \u00c2\u00b0",
        "Description": "Its in the middle of the desert! \r\n\r\nCurrent Problem - 7B",
        "Image": "/Content/Account/Users/MoonBoards/Lab_40_\u00c2\u00b0_hiRes.jpg",
        "Latitude": 34.6627652,
        "Longitude": -106.7761546,
        "IsCommercial": false,
        "IsLed": false,
        "LatLng": [
            34.6627652,
            -106.7761546
        ]
    },
    {
        "Name": "Mono pocket",
        "Description": "So Nice to have.",
        "Image": "/Content/Account/Users/MoonBoards/Mono_pocket_hiRes.jpg",
        "Latitude": 55.686429,
        "Longitude": 11.089188,
        "IsCommercial": false,
        "IsLed": false,
        "LatLng": [
            55.686429,
            11.089188
        ]
    },
    {
        "Name": "My very own Moonboard",
        "Description": "Built with some modifications.  Kickboard is half the size and the grid used was 18 high by 20 wide.  Came out to 17 rows tall.",
        "Image": "/Content/Account/Users/MoonBoards/My_very_own_Moonboard_hiRes.jpg",
        "Latitude": 35.7795897,
        "Longitude": -78.6381787,
        "IsCommercial": false,
        "IsLed": false,
        "LatLng": [
            35.7795897,
            -78.6381787
        ]
    },
    {
        "Name": "Climb In",
        "Description": "so psyched!!!",
        "Image": "/Content/Account/Users/MoonBoards/climb_in_hiRes.jpg",
        "Latitude": 36.9533092,
        "Longitude": 26.9798133,
        "IsCommercial": true,
        "IsLed": false,
        "LatLng": [
            36.9533092,
            26.9798133
        ]
    },
    {
        "Name": "BadCow",
        "Description": "I did build my own moonboard into cowshed attic.",
        "Image": "/Content/Account/Users/MoonBoards/moonclimbing.png",
        "Latitude": 61.197533,
        "Longitude": 27.6958636,
        "IsCommercial": false,
        "IsLed": false,
        "LatLng": [
            61.197533,
            27.6958636
        ]
    },
    {
        "Name": "H\u00c3\u00a4rkkboard",
        "Description": "We are building it as we speak! ",
        "Image": "/Content/Account/Users/MoonBoards/H\u00c3\u00a4rkkboard_hiRes.jpg",
        "Latitude": 59.36,
        "Longitude": 18.0009,
        "IsCommercial": true,
        "IsLed": false,
        "LatLng": [
            59.36,
            18.0009
        ]
    },
    {
        "Name": "Valla Wall",
        "Description": "Built in 2008 to spec except the kicker which is smaller.\r\n",
        "Image": "/Content/Account/Users/MoonBoards/Valla_Wall_hiRes.jpg",
        "Latitude": 58.410807,
        "Longitude": 15.6213727,
        "IsCommercial": false,
        "IsLed": false,
        "LatLng": [
            58.410807,
            15.6213727
        ]
    },
    {
        "Name": "Sankt Board",
        "Description": "I TRAIN HERE",
        "Image": "/Content/Account/Users/MoonBoards/SBoard_hiRes.jpg",
        "Latitude": 47.5446982,
        "Longitude": 12.9722062,
        "IsCommercial": false,
        "IsLed": false,
        "LatLng": [
            47.5446982,
            12.9722062
        ]
    },
    {
        "Name": "goodboulderingMOONBOARD",
        "Description": "The installation in the space vacated slack line. Popular than 16m Cave.",
        "Image": "/Content/Account/Users/MoonBoards/goodboulderingMOONBOARD_hiRes.jpg",
        "Latitude": 35.274461,
        "Longitude": 136.2596226,
        "IsCommercial": true,
        "IsLed": false,
        "LatLng": [
            35.274461,
            136.2596226
        ]
    },
    {
        "Name": "Darkside of the Moonboard",
        "Description": "Note: This free-standing wall is not to exact spec. Column A & K have been omitted due to spacial limitations; however there are still many setups with all sets of holds that do not use either of those columns. Setup in image are the first 3 problems of Original School Holds Setup 3. Angle: 45 degrees",
        "Image": "/Content/Account/Users/MoonBoards/Darkside_of_the_Moonboard_hiRes.jpg",
        "Latitude": 33.6469661,
        "Longitude": -117.689218,
        "IsCommercial": false,
        "IsLed": false,
        "LatLng": [
            33.6469661,
            -117.689218
        ]
    },
    {
        "Name": "Strength Factory Moonboard",
        "Description": "not the moon holds, but i bought harder ones, and made some jugs from wood for warm up and easy stuff... my holds doesn't allow a boulder bellow 6C, they are small",
        "Image": "/Content/Account/Users/MoonBoards/Strength_Factory_Moonboard_hiRes.jpg",
        "Latitude": 33.8937913,
        "Longitude": 35.5017767,
        "IsCommercial": false,
        "IsLed": false,
        "LatLng": [
            33.8937913,
            35.5017767
        ]
    },
    {
        "Name": "Joywall",
        "Description": "Training Tower, 2013 installation.",
        "Image": "/Content/Account/Users/MoonBoards/Joywall_hiRes.jpg",
        "Latitude": 33.3192865,
        "Longitude": 130.5083735,
        "IsCommercial": true,
        "IsLed": false,
        "LatLng": [
            33.3192865,
            130.5083735
        ]
    },
    {
        "Name": "qn0s Board",
        "Description": "Love it!",
        "Image": "/Content/Account/Users/MoonBoards/moonboard_hiRes.jpg",
        "Latitude": 48.3705449,
        "Longitude": 10.89779,
        "IsCommercial": false,
        "IsLed": false,
        "LatLng": [
            48.3705449,
            10.89779
        ]
    },
    {
        "Name": "Dale idrettshall",
        "Description": "Located in the sports hall in Dale, sunnfjord Norway. Two sets of holds in the cupboard by the board and a warm up area.",
        "Image": "/Content/Account/Users/MoonBoards/Dale_idrettshall_hiRes.jpg",
        "Latitude": 31.4645298,
        "Longitude": -85.684578,
        "IsCommercial": true,
        "IsLed": false,
        "LatLng": [
            31.4645298,
            -85.684578
        ]
    },
    {
        "Name": "CruxMoveMoonBoard",
        "Description": "The first self-supporting smart Moonboard!!!\r\nwww.cruxmove.it\r\nHere the first MoonBoard Contest@ Climbami, climbing event in Milan.\r\n",
        "Image": "/Content/Account/Users/MoonBoards/CruxMoveMoonBoard_hiRes.jpg",
        "Latitude": 45.4654219,
        "Longitude": 9.1859243,
        "IsCommercial": true,
        "IsLed": false,
        "LatLng": [
            45.4654219,
            9.1859243
        ]
    },
    {
        "Name": "Willem's Garage",
        "Description": "Had extra space in my garage, so built 0.6m higher and 1.2m wider than standard Moonboard spec.",
        "Image": "/Content/Account/Users/MoonBoards/willems_board_hiRes.jpg",
        "Latitude": -33.9248685,
        "Longitude": 18.4240553,
        "IsCommercial": false,
        "IsLed": false,
        "LatLng": [
            -33.9248685,
            18.4240553
        ]
    },
    {
        "Name": "Vert Climb",
        "Description": "Vert Climb, \r\ngessate milano italy",
        "Image": "/Content/Account/Users/MoonBoards/Vert_Climb_hiRes.jpg",
        "Latitude": 45.5565542,
        "Longitude": 9.4348624,
        "IsCommercial": true,
        "IsLed": false,
        "LatLng": [
            45.5565542,
            9.4348624
        ]
    },
    {
        "Name": "Inner Peaks Climbing",
        "Description": "Great addition to our gym.",
        "Image": "/Content/Account/Users/MoonBoards/Inner_Peaks_Climbing_hiRes.jpg",
        "Latitude": 35.2270869,
        "Longitude": -80.8431267,
        "IsCommercial": true,
        "IsLed": false,
        "LatLng": [
            35.2270869,
            -80.8431267
        ]
    },
    {
        "Name": "The Shed",
        "Description": "A personal full size Moon Board built in a large shed at the end of my drive. ",
        "Image": "/Content/Account/Users/MoonBoards/The_Shed_hiRes.jpg",
        "Latitude": 53.4326035,
        "Longitude": -1.3635009,
        "IsCommercial": false,
        "IsLed": false,
        "LatLng": [
            53.4326035,
            -1.3635009
        ]
    },
    {
        "Name": "Wolf",
        "Description": "Not yet built",
        "Image": "/Content/Account/Users/MoonBoards/Wolf_hiRes.jpg",
        "Latitude": 52.456891,
        "Longitude": -2.148731,
        "IsCommercial": false,
        "IsLed": false,
        "LatLng": [
            52.456891,
            -2.148731
        ]
    },
    {
        "Name": "YM Board",
        "Description": "A small wall in a local YMCA. Used by few, but loved by the few who use it. ",
        "Image": "/Content/Account/Users/MoonBoards/YM_Board_hiRes.jpg",
        "Latitude": 51.5946799,
        "Longitude": -3.784097,
        "IsCommercial": true,
        "IsLed": false,
        "LatLng": [
            51.5946799,
            -3.784097
        ]
    },
    {
        "Name": "Get Up!",
        "Description": "Nearly 300 square meters of climbing wall near the center of Rome",
        "Image": "/Content/Account/Users/MoonBoards/Get_Up_hiRes.jpg",
        "Latitude": 41.9027835,
        "Longitude": 12.4963655,
        "IsCommercial": true,
        "IsLed": false,
        "LatLng": [
            41.9027835,
            12.4963655
        ]
    },
    {
        "Name": "Titodromo",
        "Description": "Home outdoor wall :)",
        "Image": "/Content/Account/Users/MoonBoards/Titodromo_hiRes.jpg",
        "Latitude": 41.652251,
        "Longitude": -4.7245321,
        "IsCommercial": false,
        "IsLed": false,
        "LatLng": [
            41.652251,
            -4.7245321
        ]
    },
    {
        "Name": "CoccoBlocco",
        "Description": "Home woody for a small community of climber. Great for summer party and winter training.",
        "Image": "/Content/Account/Users/MoonBoards/CoccoBlocco_hiRes.jpg",
        "Latitude": 44.2968832,
        "Longitude": 12.1074763,
        "IsCommercial": true,
        "IsLed": false,
        "LatLng": [
            44.2968832,
            12.1074763
        ]
    },
    {
        "Name": "The Care",
        "Description": "Climbers: Andrea Zanone Marco Zanone",
        "Image": "/Content/Account/Users/MoonBoards/The_Care_hiRes.jpg",
        "Latitude": 45.5832245,
        "Longitude": 8.1028176,
        "IsCommercial": true,
        "IsLed": false,
        "LatLng": [
            45.5832245,
            8.1028176
        ]
    },
    {
        "Name": "INOUT Moonboard",
        "Description": "Moonboard of INOUT Association (Le Vele) ",
        "Image": "/Content/Account/Users/MoonBoards/INOUT_Moonboard_hiRes.jpg",
        "Latitude": 44.2358265,
        "Longitude": 7.6765157,
        "IsCommercial": false,
        "IsLed": false,
        "LatLng": [
            44.2358265,
            7.6765157
        ]
    },
    {
        "Name": "The Woodie",
        "Description": "Board is made from birch plywood that's been stained and coated with polyurethane. This one's modified too, only to row 17. Original school room holds in this pic, but the black set is on the board as well.",
        "Image": "/Content/Account/Users/MoonBoards/Moon_Board_hiRes.jpg",
        "Latitude": 47.735928,
        "Longitude": -122.6465372,
        "IsCommercial": false,
        "IsLed": false,
        "LatLng": [
            47.735928,
            -122.6465372
        ]
    },
    {
        "Name": "Outdoor Adjustable",
        "Description": "Board adjusts to any angle between 10\u00b0 and 40\u00b0",
        "Image": "/Content/Account/Users/MoonBoards/Outdoor_Adjustable_hiRes.jpg",
        "Latitude": 40.1295463,
        "Longitude": -75.6376989,
        "IsCommercial": false,
        "IsLed": false,
        "LatLng": [
            40.1295463,
            -75.6376989
        ]
    },
    {
        "Name": "Skalatoria",
        "Description": "",
        "Image": "/Content/Account/Users/MoonBoards/Skalatoria_hiRes.jpg",
        "Latitude": 55.755826,
        "Longitude": 37.6173,
        "IsCommercial": true,
        "IsLed": false,
        "LatLng": [
            55.755826,
            37.6173
        ]
    },
    {
        "Name": "The GMC",
        "Description": "The Guernsey Mountaineering Club's Moon Board!",
        "Image": "/Content/Account/Users/MoonBoards/The_GMC_hiRes.jpg",
        "Latitude": 49.465691,
        "Longitude": -2.585278,
        "IsCommercial": true,
        "IsLed": false,
        "LatLng": [
            49.465691,
            -2.585278
        ]
    },
    {
        "Name": "Blindern SIO Moonwall",
        "Description": "Maybe the best moonwall in Oslo. By students for students.",
        "Image": "/Content/Account/Users/MoonBoards/IMG_13891.jpg",
        "Latitude": 59.9138688,
        "Longitude": 10.7522454,
        "IsCommercial": true,
        "IsLed": false,
        "LatLng": [
            59.9138688,
            10.7522454
        ]
    },
    {
        "Name": "Outdoor",
        "Description": "https://vimeo.com/110696880",
        "Image": "/Content/Account/Users/MoonBoards/Moonboard.jpg",
        "Latitude": 46.85552,
        "Longitude": 7.24859,
        "IsCommercial": false,
        "IsLed": false,
        "LatLng": [
            46.85552,
            7.24859
        ]
    },
    {
        "Name": "Smooth Stream",
        "Description": "Put your head back; close your eyes, and wade into the quiet of the steam.\r\nThese holds really do look black in the moonlight.",
        "Image": "/Content/Account/Users/MoonBoards/1928857_973339932703522_2988789380562671950_n.jpg",
        "Latitude": 38.9784453,
        "Longitude": -76.4921829,
        "IsCommercial": false,
        "IsLed": false,
        "LatLng": [
            38.9784453,
            -76.4921829
        ]
    },
    {
        "Name": "K2Board",
        "Description": "While searching for a way to train more often, I followed a tip from a friend and here I am. Second year now. Great system. I used steel support.",
        "Image": "/Content/Account/Users/MoonBoards/IMG_0748.jpg",
        "Latitude": 41.4313507,
        "Longitude": 23.3335456,
        "IsCommercial": false,
        "IsLed": false,
        "LatLng": [
            41.4313507,
            23.3335456
        ]
    },
    {
        "Name": "Jungleboard",
        "Description": "Board outside my house here in Brazil.",
        "Image": "/Content/Account/Users/MoonBoards/12919137_1701119350173896_1119946114_n1.jpg",
        "Latitude": -22.8858975,
        "Longitude": -43.1152211,
        "IsCommercial": false,
        "IsLed": false,
        "LatLng": [
            -22.8858975,
            -43.1152211
        ]
    },
    {
        "Name": "Niteroi Moonboard",
        "Description": "Outside moonboard",
        "Image": "/Content/Account/Users/MoonBoards/received_17011193501738961.jpeg",
        "Latitude": -22.8858975,
        "Longitude": -43.1152211,
        "IsCommercial": false,
        "IsLed": false,
        "LatLng": [
            -22.8858975,
            -43.1152211
        ]
    },
    {
        "Name": "Funsu78",
        "Description": "My moonboard was built by me in the attic of my house.",
        "Image": "/Content/Account/Users/MoonBoards/20150928_Moonboard.jpg",
        "Latitude": 44.5319723,
        "Longitude": 7.9497482,
        "IsCommercial": false,
        "IsLed": false,
        "LatLng": [
            44.5319723,
            7.9497482
        ]
    },
    {
        "Name": "ansanclimbing gym",
        "Description": "moon board .. very fun!!!",
        "Image": "/Content/Account/Users/MoonBoards/ansanclimb.jpg",
        "Latitude": 37.3218778,
        "Longitude": 126.8308848,
        "IsCommercial": true,
        "IsLed": false,
        "LatLng": [
            37.3218778,
            126.8308848
        ]
    },
    {
        "Name": "Bonsist",
        "Description": "This is the first MoonBoard at our Climbing gym. Gravity (bonsist)",
        "Image": "/Content/Account/Users/MoonBoards/moonboard.jpg",
        "Latitude": 42.6977082,
        "Longitude": 23.3218675,
        "IsCommercial": true,
        "IsLed": false,
        "LatLng": [
            42.6977082,
            23.3218675
        ]
    },
    {
        "Name": "Logen",
        "Description": "This is my moon",
        "Image": "/Content/Account/Users/MoonBoards/IMG_0060.jpg",
        "Latitude": 55.4295051,
        "Longitude": 13.8200308,
        "IsCommercial": false,
        "IsLed": false,
        "LatLng": [
            55.4295051,
            13.8200308
        ]
    },
    {
        "Name": "Dazare",
        "Description": "La rompe Egos.",
        "Image": "/Content/Account/Users/MoonBoards/20160419_102602.jpg",
        "Latitude": 28.4636296,
        "Longitude": -16.2518467,
        "IsCommercial": false,
        "IsLed": false,
        "LatLng": [
            28.4636296,
            -16.2518467
        ]
    },
    {
        "Name": "Darkside of the moonboard",
        "Description": "Use the force you must.\r\nDo or do not. There is no try.",
        "Image": "/Content/Account/Users/MoonBoards/DSC03487.jpg",
        "Latitude": 47.4031793,
        "Longitude": 7.1268158,
        "IsCommercial": false,
        "IsLed": false,
        "LatLng": [
            47.4031793,
            7.1268158
        ]
    },
    {
        "Name": "GioMoon",
        "Description": "A private board with leds ",
        "Image": "/Content/Account/Users/MoonBoards/moon.jpg",
        "Latitude": 44.1024504,
        "Longitude": 9.8240826,
        "IsCommercial": false,
        "IsLed": false,
        "LatLng": [
            44.1024504,
            9.8240826
        ]
    },
    {
        "Name": "N-mura Board",
        "Description": "Outdoor board in Japan.",
        "Image": "/Content/Account/Users/MoonBoards/IMG_20160517_191525.jpg",
        "Latitude": 32.9794831,
        "Longitude": 130.8133329,
        "IsCommercial": false,
        "IsLed": false,
        "LatLng": [
            32.9794831,
            130.8133329
        ]
    },
    {
        "Name": "Grand Wall Bouldering Co-operative",
        "Description": "Located on Loggers Lane in Squamish, BC, the co-op is a not for profit training facility for residents of Squamish and visitors to the area. Supported by annual membership and drop in fees. The Moonboard is the latest addition and has been set up with the new LED system.\r",
        "Image": "/Content/Account/Users/MoonBoards/Grand-Wall-Bouldering-Coop-Squamish-Moonboard.jpg",
        "Latitude": 49.7016339,
        "Longitude": -123.1558121,
        "IsCommercial": true,
        "IsLed": true,
        "LatLng": [
            49.7016339,
            -123.1558121
        ]
    },
    {
        "Name": "The Bastard 25er",
        "Description": "To fit in the available space and especially my climbing ability it was (up until Moonboard Masters 2017) a bastard board with only 25 degrees of overhang instead of 40. It's great! And it's got a small warmup session on the right. Now updated with hold set C, Wooden holds and LEDs! Love it!",
        "Image": "/Content/Account/Users/MoonBoards/TheBastard25er.jpg",
        "Latitude": 59.32932349999999,
        "Longitude": 18.0685808,
        "IsCommercial": false,
        "IsLed": true,
        "LatLng": [
            59.32932349999999,
            18.0685808
        ]
    },
    {
        "Name": "Apuano Appeso",
        "Description": "APUANO APPESO<br />Hold setup: MoonBoard 2016<br />Hold sets: Original School + Set A + Set B<br />",
        "Image": "/Content/Account/Users/MoonBoards/765_DE55EA04-F573-424A-8332-93ED1420392B.jpg",
        "Latitude": 44.1094753,
        "Longitude": 10.4135465,
        "IsCommercial": false,
        "IsLed": false,
        "LatLng": [
            44.1094753,
            10.4135465
        ]
    },
    {
        "Name": "Dubai's Beast Making Machine",
        "Description": "The only moonboard in Dubai. I usually train on Monday and Wednesday, though stinky climbers are welcome all the time!",
        "Image": "/Content/Account/Users/MoonBoards/IMG_0078.jpg",
        "Latitude": 25.2016428,
        "Longitude": 55.2452567,
        "IsCommercial": false,
        "IsLed": false,
        "LatLng": [
            25.2016428,
            55.2452567
        ]
    },
    {
        "Name": "Moonboard Eskebaek",
        "Description": "Mix of set B and few jugs. It's awesome",
        "Image": "/Content/Account/Users/MoonBoards/IMG_20160615_234209.jpg",
        "Latitude": 62.2960554,
        "Longitude": 17.3790503,
        "IsCommercial": false,
        "IsLed": false,
        "LatLng": [
            62.2960554,
            17.3790503
        ]
    },
    {
        "Name": "MoonBoard @ Uprising",
        "Description": "We have our board up at Uprising Boulder Gym!",
        "Image": "/Content/Account/Users/MoonBoards/unnamed.jpg",
        "Latitude": -43.5320544,
        "Longitude": 172.6362254,
        "IsCommercial": true,
        "IsLed": false,
        "LatLng": [
            -43.5320544,
            172.6362254
        ]
    },
    {
        "Name": "Ujjer\u0151 Moonboard",
        "Description": "A training room with moonboard.",
        "Image": "/Content/Account/Users/MoonBoards/moonclimbing.png",
        "Latitude": 47.497912,
        "Longitude": 19.040235,
        "IsCommercial": true,
        "IsLed": false,
        "LatLng": [
            47.497912,
            19.040235
        ]
    },
    {
        "Name": "Panoul de Catzarat Sibiu",
        "Description": "Juli 2016: Only white holds set. Maybe more in the future.\r\n\r\nProgram:\r\nMo: 8:30 pm\r\nTue: 8:00 pm\r\nWed: 8:00 pm\r\n\r\nAdress: \r\nAleea Genistilor No 15 inside the gym of the 21 school",
        "Image": "/Content/Account/Users/MoonBoards/moonboard-sibiu.jpg",
        "Latitude": 45.7983273,
        "Longitude": 24.1255826,
        "IsCommercial": true,
        "IsLed": false,
        "LatLng": [
            45.7983273,
            24.1255826
        ]
    },
    {
        "Name": "Kletter- und Boulderzentrum M\u00fcnchen",
        "Description": "Original School Holds + Set A + B, all 2016",
        "Image": "/Content/Account/Users/MoonBoards/moonclimbing.png",
        "Latitude": 48.1092285,
        "Longitude": 11.2899694,
        "IsCommercial": true,
        "IsLed": false,
        "LatLng": [
            48.1092285,
            11.2899694
        ]
    },
    {
        "Name": "Boardroom",
        "Description": "45 degrees moonboard. A continuous crux!",
        "Image": "/Content/Account/Users/MoonBoards/DSC_1340.jpg",
        "Latitude": 39.6390224,
        "Longitude": 22.4191254,
        "IsCommercial": false,
        "IsLed": false,
        "LatLng": [
            39.6390224,
            22.4191254
        ]
    },
    {
        "Name": "SunnyDipperMoonBoard",
        "Description": "SunnyDipper is very Sunny,There are beautiful Moon though.\r\n\r\nMoon board is good training.\r\nThanks!!",
        "Image": "/Content/Account/Users/MoonBoards/image1.jpg",
        "Latitude": 34.4875144,
        "Longitude": 136.7093359,
        "IsCommercial": true,
        "IsLed": false,
        "LatLng": [
            34.4875144,
            136.7093359
        ]
    },
    {
        "Name": "Treedash MoonBoard",
        "Description": "It's cooler than yours.",
        "Image": "/Content/Account/Users/MoonBoards/JTC_1493-5.jpg",
        "Latitude": 34.1705609,
        "Longitude": -118.8375937,
        "IsCommercial": false,
        "IsLed": false,
        "LatLng": [
            34.1705609,
            -118.8375937
        ]
    },
    {
        "Name": "Redwood board",
        "Description": "Built a moonboard. have all three sets. bish bosh",
        "Image": "/Content/Account/Users/MoonBoards/20160711_155804-1.jpg",
        "Latitude": 39.2646413,
        "Longitude": -123.5913484,
        "IsCommercial": false,
        "IsLed": false,
        "LatLng": [
            39.2646413,
            -123.5913484
        ]
    },
    {
        "Name": "Gorilla climbing's Moonboard",
        "Description": "will make you the Beast.",
        "Image": "/Content/Account/Users/MoonBoards/gorillamoonboard.jpg",
        "Latitude": 36.7844993,
        "Longitude": 126.4503169,
        "IsCommercial": true,
        "IsLed": false,
        "LatLng": [
            36.7844993,
            126.4503169
        ]
    },
    {
        "Name": "The 47 Board",
        "Description": "shorter kicker and 47 degree overhang",
        "Image": "/Content/Account/Users/MoonBoards/IMG_20160829_083721909.jpg",
        "Latitude": 50.1163196,
        "Longitude": -122.9573563,
        "IsCommercial": false,
        "IsLed": false,
        "LatLng": [
            50.1163196,
            -122.9573563
        ]
    },
    {
        "Name": "Storage Board",
        "Description": "Full set of holds plus LED kit. Free standing construction inside a heated storage locker (it's cold here). Small kicker to make it fit makes the start moves hard. Saint John's only bouldering facility as of 2016.",
        "Image": "/Content/Account/Users/MoonBoards/SAM_3373-2.jpg",
        "Latitude": 45.2733153,
        "Longitude": -66.0633081,
        "IsCommercial": false,
        "IsLed": true,
        "LatLng": [
            45.2733153,
            -66.0633081
        ]
    },
    {
        "Name": "CL_Moonboard",
        "Description": "It\u00b4s modificated for lower room. Maybe first MB in Czech rep.",
        "Image": "/Content/Account/Users/MoonBoards/IMG_4587.jpg",
        "Latitude": 50.6785201,
        "Longitude": 14.5396991,
        "IsCommercial": false,
        "IsLed": false,
        "LatLng": [
            50.6785201,
            14.5396991
        ]
    },
    {
        "Name": "GRAVITON",
        "Description": "The moon board in Graviton Bouldergym is a public Board",
        "Image": "/Content/Account/Users/MoonBoards/Bestand-10-09-16-11-19-03.jpeg",
        "Latitude": 51.0006238,
        "Longitude": 5.8864788,
        "IsCommercial": true,
        "IsLed": false,
        "LatLng": [
            51.0006238,
            5.8864788
        ]
    },
    {
        "Name": "BoulderGarden SaBo",
        "Description": "",
        "Image": "/Content/Account/Users/MoonBoards/moonclimbing.png",
        "Latitude": 34.6551456,
        "Longitude": 133.9195019,
        "IsCommercial": true,
        "IsLed": true,
        "LatLng": [
            34.6551456,
            133.9195019
        ]
    },
    {
        "Name": "MoonBoard",
        "Description": "An outdoor white board placed among mandarin and lemon trees.",
        "Image": "/Content/Account/Users/MoonBoards/20160829_072307.jpg",
        "Latitude": -34.9284989,
        "Longitude": 138.6007456,
        "IsCommercial": false,
        "IsLed": false,
        "LatLng": [
            -34.9284989,
            138.6007456
        ]
    },
    {
        "Name": "Gravity Lab",
        "Description": "Our first training system in our garage :)",
        "Image": "/Content/Account/Users/MoonBoards/Final-1.jpg",
        "Latitude": 50.8503463,
        "Longitude": 4.3517211,
        "IsCommercial": false,
        "IsLed": false,
        "LatLng": [
            50.8503463,
            4.3517211
        ]
    },
    {
        "Name": "Oldenboard",
        "Description": "Original School Holds + Set A + B, all 2016",
        "Image": "/Content/Account/Users/MoonBoards/IMG_0850.jpg",
        "Latitude": 53.1434501,
        "Longitude": 8.2145521,
        "IsCommercial": false,
        "IsLed": false,
        "LatLng": [
            53.1434501,
            8.2145521
        ]
    },
    {
        "Name": "the johnson",
        "Description": "ill get a real pic soon. its an out doors board ?",
        "Image": "/Content/Account/Users/MoonBoards/IMG_0016.jpg",
        "Latitude": 44.7630567,
        "Longitude": -85.6206317,
        "IsCommercial": false,
        "IsLed": false,
        "LatLng": [
            44.7630567,
            -85.6206317
        ]
    },
    {
        "Name": "Summit the Moon",
        "Description": "My board is within the training facility \"Summit Strength &amp; Fitness\" in south central Wisconsin (opening 12/16).  The facility is a space to come and get private coaching or training while avoiding the distractions of the general public.  The moon board it self is integrated into the entire climbing wall system in a way that you can climb full circuits using the board and other features such as a roof, system board, slab, and very high angle.  Upon the growth of the business we plan on addin",
        "Image": "/Content/Account/Users/MoonBoards/moonclimbing.png",
        "Latitude": 43.0730517,
        "Longitude": -89.4012302,
        "IsCommercial": true,
        "IsLed": false,
        "LatLng": [
            43.0730517,
            -89.4012302
        ]
    },
    {
        "Name": "MB for friends))",
        "Description": "My be later I'll fill this field))",
        "Image": "/Content/Account/Users/MoonBoards/20160613_191211.jpg",
        "Latitude": 60.9431185,
        "Longitude": 76.5433724,
        "IsCommercial": false,
        "IsLed": false,
        "LatLng": [
            60.9431185,
            76.5433724
        ]
    },
    {
        "Name": "Camp Ross",
        "Description": "In a garage with AC and a treadwall for the warm-up and endurance sessions.  Send me an email if you want to climb ross.congo@gmail.com",
        "Image": "/Content/Account/Users/MoonBoards/Camp-Ross.jpg",
        "Latitude": 35.1495343,
        "Longitude": -90.0489801,
        "IsCommercial": false,
        "IsLed": true,
        "LatLng": [
            35.1495343,
            -90.0489801
        ]
    },
    {
        "Name": "Max's Moonboard",
        "Description": "19.6 cm vertical spacing, 20 cm horizontal. Hold sets original+A+B. In my garage.",
        "Image": "/Content/Account/Users/MoonBoards/IMG_3582.jpg",
        "Latitude": 38.5449065,
        "Longitude": -121.7405167,
        "IsCommercial": false,
        "IsLed": false,
        "LatLng": [
            38.5449065,
            -121.7405167
        ]
    },
    {
        "Name": "OnderDenNotenBoom",
        "Description": "Next to my house, build it to train for projects and i like it a lot",
        "Image": "/Content/Account/Users/MoonBoards/IMG_4411.jpg",
        "Latitude": 51.05595,
        "Longitude": 4.20946,
        "IsCommercial": false,
        "IsLed": false,
        "LatLng": [
            51.05595,
            4.20946
        ]
    },
    {
        "Name": "First moon board in Hokuriku",
        "Description": "It will be completed by setting hold.\r\nset-A,Set-B,and original set.",
        "Image": "/Content/Account/Users/MoonBoards/S__7618566.jpg",
        "Latitude": 35.6452443,
        "Longitude": 136.0554408,
        "IsCommercial": false,
        "IsLed": false,
        "LatLng": [
            35.6452443,
            136.0554408
        ]
    },
    {
        "Name": "Vertigo Moon Board",
        "Description": "VERTIGO \u00e8 un'ampia sala boulder con difficolt\u00e0 dal 4\u00b0 grado all'8a. Non mancano i circuiti e alcuni itinerari didattici con la corda.",
        "Image": "/Content/Account/Users/MoonBoards/moonclimbing.png",
        "Latitude": 44.6867594,
        "Longitude": 7.8960573,
        "IsCommercial": true,
        "IsLed": false,
        "LatLng": [
            44.6867594,
            7.8960573
        ]
    },
    {
        "Name": "The Practice Room",
        "Description": "This moonboard is part of a recently constructed training wall in the basement of a dental practice. Strong fingers in the name of the game.",
        "Image": "/Content/Account/Users/MoonBoards/IMG_0144.jpg",
        "Latitude": 44.1858193,
        "Longitude": -88.462609,
        "IsCommercial": false,
        "IsLed": false,
        "LatLng": [
            44.1858193,
            -88.462609
        ]
    },
    {
        "Name": "Trafo Base Camp",
        "Description": "&#091;TrafoBaseCamp&#093; is a hostel, pub, climbing shop and bouldering wall placed in Podlesice, right in the middle of Polish Jura.",
        "Image": "/Content/Account/Users/MoonBoards/AA.jpg",
        "Latitude": 50.5638534,
        "Longitude": 19.5340252,
        "IsCommercial": true,
        "IsLed": false,
        "LatLng": [
            50.5638534,
            19.5340252
        ]
    },
    {
        "Name": "CW Forteca",
        "Description": "Moonboard bulid at Forteca climbing wall. Except moonboard corner with campus this is a place for beginners.",
        "Image": "/Content/Account/Users/MoonBoards/AA1.jpg",
        "Latitude": 50.0646501,
        "Longitude": 19.9449799,
        "IsCommercial": true,
        "IsLed": false,
        "LatLng": [
            50.0646501,
            19.9449799
        ]
    },
    {
        "Name": "LCW Paderewski",
        "Description": "Moonboard at commercial climbing wall in city of Lublin.",
        "Image": "/Content/Account/Users/MoonBoards/AA2.jpg",
        "Latitude": 51.2464536,
        "Longitude": 22.5684463,
        "IsCommercial": true,
        "IsLed": false,
        "LatLng": [
            51.2464536,
            22.5684463
        ]
    },
    {
        "Name": "Eiger",
        "Description": "Moonboard on Eiger climbing wall in Wroc\u0142aw, Poland.",
        "Image": "/Content/Account/Users/MoonBoards/AA3.jpg",
        "Latitude": 51.1078852,
        "Longitude": 17.0385376,
        "IsCommercial": true,
        "IsLed": false,
        "LatLng": [
            51.1078852,
            17.0385376
        ]
    },
    {
        "Name": "Tkalnia",
        "Description": "Climbing gym run by local climbing community.",
        "Image": "/Content/Account/Users/MoonBoards/AA4.jpg",
        "Latitude": 50.7116152,
        "Longitude": 16.5820423,
        "IsCommercial": false,
        "IsLed": false,
        "LatLng": [
            50.7116152,
            16.5820423
        ]
    },
    {
        "Name": "P\u0142ockie Centrum Wspinaczkowe - Orlen Arena",
        "Description": "Moonboard at climbing wall in Orlen Arena.",
        "Image": "/Content/Account/Users/MoonBoards/AA5.jpg",
        "Latitude": 52.5463446,
        "Longitude": 19.7065364,
        "IsCommercial": true,
        "IsLed": false,
        "LatLng": [
            52.5463446,
            19.7065364
        ]
    },
    {
        "Name": "Murikka ry",
        "Description": "Christmas present for Murikka members ?",
        "Image": "/Content/Account/Users/MoonBoards/IMG_5081.jpg",
        "Latitude": 62.787735,
        "Longitude": 22.8504338,
        "IsCommercial": false,
        "IsLed": false,
        "LatLng": [
            62.787735,
            22.8504338
        ]
    },
    {
        "Name": "SARG",
        "Description": "Freestanding board located in the upper training area of SARG.  Psyched to be the first board on the TX map!  LED kit, all hold sets, and additional ARG MOD complete with Ian Powell Kilter grips!  Perfect set up for all climbers who train hard here in Central TX!",
        "Image": "/Content/Account/Users/MoonBoards/moonclimbing.png",
        "Latitude": 30.267153,
        "Longitude": -97.7430608,
        "IsCommercial": true,
        "IsLed": true,
        "LatLng": [
            30.267153,
            -97.7430608
        ]
    },
    {
        "Name": "Motyckie Centrum Mocy",
        "Description": "Privat home wall in a village of Motycz, Poland. Probably best climbing wall in the area. \r\nHolds A and B.",
        "Image": "/Content/Account/Users/MoonBoards/SAM_0322.jpg",
        "Latitude": 51.2393839,
        "Longitude": 22.37902,
        "IsCommercial": false,
        "IsLed": false,
        "LatLng": [
            51.2393839,
            22.37902
        ]
    },
    {
        "Name": "Shiba inu",
        "Description": "Moonboard original size",
        "Image": "/Content/Account/Users/MoonBoards/IMG_0010.jpg",
        "Latitude": 51.8615899,
        "Longitude": 4.3580323,
        "IsCommercial": false,
        "IsLed": false,
        "LatLng": [
            51.8615899,
            4.3580323
        ]
    },
    {
        "Name": "WKGIJ Walbrzych Moonboard",
        "Description": "Moonboard in small climbing club gym.",
        "Image": "/Content/Account/Users/MoonBoards/20170104_160351.jpg",
        "Latitude": 50.7840092,
        "Longitude": 16.2843553,
        "IsCommercial": false,
        "IsLed": false,
        "LatLng": [
            50.7840092,
            16.2843553
        ]
    },
    {
        "Name": "FreeblocBoard",
        "Description": "Great training area that includes a moon board",
        "Image": "/Content/Account/Users/MoonBoards/15337650_1825031701107379_3553403774593538254_n.jpg",
        "Latitude": 41.3850639,
        "Longitude": 2.1734035,
        "IsCommercial": true,
        "IsLed": false,
        "LatLng": [
            41.3850639,
            2.1734035
        ]
    },
    {
        "Name": "Masarnia",
        "Description": "It's just beautiful!\r\n\r\nWe had a lot of work to do but it was worth it. You can see some photos here:\r\nhttp://wspinaczka.edu.pl/2016/12/swiatynia.html",
        "Image": "/Content/Account/Users/MoonBoards/moon.jpg",
        "Latitude": 49.9857805,
        "Longitude": 18.9477092,
        "IsCommercial": false,
        "IsLed": false,
        "LatLng": [
            49.9857805,
            18.9477092
        ]
    },
    {
        "Name": "Chrz\u0105stawa Ma\u0142a",
        "Description": "Private Moonboard",
        "Image": "/Content/Account/Users/MoonBoards/AA1.jpg",
        "Latitude": 51.0819987,
        "Longitude": 17.282177,
        "IsCommercial": false,
        "IsLed": false,
        "LatLng": [
            51.0819987,
            17.282177
        ]
    },
    {
        "Name": "Spot Boulder Caffe",
        "Description": "Bouldering gym in city of \u0141\u00f3d\u017a. \r\n3 sets of moonboard holds.",
        "Image": "/Content/Account/Users/MoonBoards/AA2.jpg",
        "Latitude": 51.7592485,
        "Longitude": 19.4559833,
        "IsCommercial": true,
        "IsLed": false,
        "LatLng": [
            51.7592485,
            19.4559833
        ]
    },
    {
        "Name": "Gato",
        "Description": "Climbing center Gato. \r\n3 sets of holds.",
        "Image": "/Content/Account/Users/MoonBoards/AA3.jpg",
        "Latitude": 53.0137902,
        "Longitude": 18.5984437,
        "IsCommercial": true,
        "IsLed": false,
        "LatLng": [
            53.0137902,
            18.5984437
        ]
    },
    {
        "Name": "Klatreverket Drammen",
        "Description": "The board is in a separate room on the top floor, overlooking the main climbing hall. All three hold sets and led. Phone holder and charger available.",
        "Image": "/Content/Account/Users/MoonBoards/MG_4505.jpg",
        "Latitude": 59.7440738,
        "Longitude": 10.2044564,
        "IsCommercial": true,
        "IsLed": true,
        "LatLng": [
            59.7440738,
            10.2044564
        ]
    },
    {
        "Name": "Garage wall",
        "Description": "I built this board in my garage as an alternative to not having a decent local climbing gym. I love it and have a lot of local friends utilize it for training.",
        "Image": "/Content/Account/Users/MoonBoards/814_CF150B08-E978-4462-B47D-F255CF612B44.jpg",
        "Latitude": 41.2411897,
        "Longitude": -77.00107860000001,
        "IsCommercial": false,
        "IsLed": false,
        "LatLng": [
            41.2411897,
            -77.00107860000001
        ]
    },
    {
        "Name": "Summit Strength & Fitness",
        "Description": "Our moonboard is integrated into a 1600 square foot cave.  Once you reach the top of the moon board you can continue climbing on horizontal terrain with various angles, eventually leading to a 14ft tall top out.",
        "Image": "/Content/Account/Users/MoonBoards/IMG_8338-01.jpeg",
        "Latitude": 43.0730517,
        "Longitude": -89.4012302,
        "IsCommercial": true,
        "IsLed": false,
        "LatLng": [
            43.0730517,
            -89.4012302
        ]
    },
    {
        "Name": "Amanich-board",
        "Description": "The first moon board in south part of Russia - Crimea! so from my house i can see not only rocks with sport routes, but my own Moon board too! everyone is heartly welcomed to Crimea for climbing!",
        "Image": "/Content/Account/Users/MoonBoards/16176164_761681863980207_721361191_n.jpg",
        "Latitude": 44.746091,
        "Longitude": 33.8615644,
        "IsCommercial": false,
        "IsLed": false,
        "LatLng": [
            44.746091,
            33.8615644
        ]
    },
    {
        "Name": "BelltownWoody",
        "Description": "Winch-Adjustable Moonboard",
        "Image": "/Content/Account/Users/MoonBoards/IMG_0986.jpg",
        "Latitude": 47.6062095,
        "Longitude": -122.3320708,
        "IsCommercial": false,
        "IsLed": false,
        "LatLng": [
            47.6062095,
            -122.3320708
        ]
    },
    {
        "Name": "Swole Hole",
        "Description": "Moonboard built in 10'x12' Tuff Shed in our backyard. We call the shed the Swole Hole. http://bit.ly/SwoleHole for details.",
        "Image": "/Content/Account/Users/MoonBoards/818_93A38FE2-1B2B-4B0F-9B70-9A77BAE976B8.JPG",
        "Latitude": 35.8800364,
        "Longitude": -106.3031138,
        "IsCommercial": false,
        "IsLed": false,
        "LatLng": [
            35.8800364,
            -106.3031138
        ]
    },
    {
        "Name": "CCS Moonboard",
        "Description": "The moonboard is at Casper's Climbing Shop. It is free to be used by anyone during opening hours.",
        "Image": "/Content/Account/Users/MoonBoards/IMG_9907.jpg",
        "Latitude": 49.628273,
        "Longitude": 6.0206309,
        "IsCommercial": false,
        "IsLed": true,
        "LatLng": [
            49.628273,
            6.0206309
        ]
    },
    {
        "Name": "crooked dog",
        "Description": "first i have to use the rope ladder, then I can walk straight to heaven. here he waits: the crooked dog.",
        "Image": "/Content/Account/Users/MoonBoards/crookeddog.jpg",
        "Latitude": 48.1751847,
        "Longitude": 14.5254825,
        "IsCommercial": false,
        "IsLed": false,
        "LatLng": [
            48.1751847,
            14.5254825
        ]
    },
    {
        "Name": "The Shed",
        "Description": "This is The Shed. This isn't the perfectly built moonboard. My dimensions are short by a few cm here and there and my angle is set at 46.5. All of the problems flow, and the extra aggressiveness and intensity I have to go about the problems with these dimensions seems to make everything super sandbagged and totally welcomed. Training just stepped up to the next level. Psyched to say the least!",
        "Image": "/Content/Account/Users/MoonBoards/image.jpeg",
        "Latitude": 30.3582506,
        "Longitude": -90.0656311,
        "IsCommercial": false,
        "IsLed": false,
        "LatLng": [
            30.3582506,
            -90.0656311
        ]
    },
    {
        "Name": "The Training Room - Awesome Walls Dublin",
        "Description": "We love our Moon Board! Our training room also has a 52deg board, campus baord, finger baords &amp; rings. We've added extra t-nuts between our Moon board grid to allow for more variety of holds on the 40deg while not interfering with the Moon Board set up.",
        "Image": "/Content/Account/Users/MoonBoards/2015-11-10-09.12.21.jpg",
        "Latitude": 53.3498053,
        "Longitude": -6.2603097,
        "IsCommercial": true,
        "IsLed": false,
        "LatLng": [
            53.3498053,
            -6.2603097
        ]
    },
    {
        "Name": "Approach Climbing Gym",
        "Description": "Approach Climbing Gym",
        "Image": "/Content/Account/Users/MoonBoards/Approach-5.jpg",
        "Latitude": 41.2523634,
        "Longitude": -95.9979883,
        "IsCommercial": true,
        "IsLed": false,
        "LatLng": [
            41.2523634,
            -95.9979883
        ]
    },
    {
        "Name": "The Mine Bouldering Gym",
        "Description": "Located at The Mine Bouldering Gym in Park City, UT. Our Moonboard is open to all of our members and day pass users.",
        "Image": "/Content/Account/Users/MoonBoards/moonclimbing.png",
        "Latitude": 40.6460622,
        "Longitude": -111.4979729,
        "IsCommercial": true,
        "IsLed": false,
        "LatLng": [
            40.6460622,
            -111.4979729
        ]
    },
    {
        "Name": "Cemtarme MoonBoard",
        "Description": "Cemtarme",
        "Image": "/Content/Account/Users/MoonBoards/Cemtarme-MoonBoard.jpg",
        "Latitude": 43.2450108,
        "Longitude": -5.5616573,
        "IsCommercial": false,
        "IsLed": true,
        "LatLng": [
            43.2450108,
            -5.5616573
        ]
    },
    {
        "Name": "CDUB Board",
        "Description": "I've got this bad boy in my garage.  Looking to get the LEDs soon",
        "Image": "/Content/Account/Users/MoonBoards/13113028_10154217614628993_2252224723443629806_o.jpg",
        "Latitude": 39.7392358,
        "Longitude": -104.990251,
        "IsCommercial": false,
        "IsLed": false,
        "LatLng": [
            39.7392358,
            -104.990251
        ]
    },
    {
        "Name": "T-UP BOARD",
        "Description": "A BEST GYM HAVE BEST MOON BOARD TO  TRAIN",
        "Image": "/Content/Account/Users/MoonBoards/MOON-BOARD.jpg",
        "Latitude": 24.9242108,
        "Longitude": 121.1366715,
        "IsCommercial": true,
        "IsLed": true,
        "LatLng": [
            24.9242108,
            121.1366715
        ]
    },
    {
        "Name": "LAD Moonboard",
        "Description": "a moonboard in climing gym LAD, Built on the donation of climbers",
        "Image": "/Content/Account/Users/MoonBoards/SOFm-nMj2EY.jpg",
        "Latitude": 56.2965039,
        "Longitude": 43.93605900000001,
        "IsCommercial": true,
        "IsLed": false,
        "LatLng": [
            56.2965039,
            43.93605900000001
        ]
    },
    {
        "Name": "PRG Moonboard",
        "Description": "A wall for training, rain or shine!",
        "Image": "/Content/Account/Users/MoonBoards/moonclimbing.png",
        "Latitude": 45.5230622,
        "Longitude": -122.6764816,
        "IsCommercial": true,
        "IsLed": false,
        "LatLng": [
            45.5230622,
            -122.6764816
        ]
    },
    {
        "Name": "CityRock!",
        "Description": "Details coming soon.  She's up and running now!",
        "Image": "/Content/Account/Users/MoonBoards/Moon-Board.jpg",
        "Latitude": 38.8338816,
        "Longitude": -104.8213634,
        "IsCommercial": true,
        "IsLed": true,
        "LatLng": [
            38.8338816,
            -104.8213634
        ]
    },
    {
        "Name": "SMiLE JYM",
        "Description": "A small bouldering jym in Samara. Joint trainings. Hardcore old school. The Place Of Power)",
        "Image": "/Content/Account/Users/MoonBoards/moonclimbing.png",
        "Latitude": 53.2415041,
        "Longitude": 50.2212463,
        "IsCommercial": true,
        "IsLed": false,
        "LatLng": [
            53.2415041,
            50.2212463
        ]
    },
    {
        "Name": "LEF",
        "Description": "Moonboard",
        "Image": "/Content/Account/Users/MoonBoards/moonclimbing.png",
        "Latitude": 38.0405837,
        "Longitude": -84.5037164,
        "IsCommercial": true,
        "IsLed": false,
        "LatLng": [
            38.0405837,
            -84.5037164
        ]
    },
    {
        "Name": "ViCKy MOON",
        "Description": "The Northest board in the whole world.",
        "Image": "/Content/Account/Users/MoonBoards/moon-2-2.jpg",
        "Latitude": 68.9585244,
        "Longitude": 33.0826598,
        "IsCommercial": true,
        "IsLed": false,
        "LatLng": [
            68.9585244,
            33.0826598
        ]
    },
    {
        "Name": "Hypto Crypto",
        "Description": "I can climb real rock in my backyard but I love the moonboard",
        "Image": "/Content/Account/Users/MoonBoards/IMG_5484.jpg",
        "Latitude": 43.7666507,
        "Longitude": -103.5988057,
        "IsCommercial": false,
        "IsLed": false,
        "LatLng": [
            43.7666507,
            -103.5988057
        ]
    },
    {
        "Name": "The DEN",
        "Description": "First LED MoonBoard in the UK, creator of the MoonBoard App.\r\n\r\nI have both a 40 and 25 degree LED MoonBoard.",
        "Image": "/Content/Account/Users/MoonBoards/840_C2338857-12FD-4846-B850-EA795B83B240.jpg",
        "Latitude": 52.240477,
        "Longitude": -0.9026560000000001,
        "IsCommercial": false,
        "IsLed": true,
        "LatLng": [
            52.240477,
            -0.9026560000000001
        ]
    },
    {
        "Name": "The Dojo",
        "Description": "Freestanding and covered in chalkboard paint so my 3 year old can draw while I train. Love this thing.",
        "Image": "/Content/Account/Users/MoonBoards/18359426_10155238313872482_5700486042682531083_o.jpg",
        "Latitude": 29.9974362,
        "Longitude": -98.0986204,
        "IsCommercial": false,
        "IsLed": true,
        "LatLng": [
            29.9974362,
            -98.0986204
        ]
    },
    {
        "Name": "Ballroom Moonboard",
        "Description": "The moonboard at The Ballroom Climbing Wall",
        "Image": "/Content/Account/Users/MoonBoards/IMG_7296.jpg",
        "Latitude": 52.406822,
        "Longitude": -1.519693,
        "IsCommercial": true,
        "IsLed": true,
        "LatLng": [
            52.406822,
            -1.519693
        ]
    },
    {
        "Name": "PGPV",
        "Description": "A little off spec because of space constraints but we still love it.",
        "Image": "/Content/Account/Users/MoonBoards/IMG_0072.jpg",
        "Latitude": 37.3841066,
        "Longitude": -122.2352443,
        "IsCommercial": false,
        "IsLed": true,
        "LatLng": [
            37.3841066,
            -122.2352443
        ]
    },
    {
        "Name": "TRAVERSS",
        "Description": "First Moonboard in Latvia, located in  gym of \"Traverss\" climbing club . \r\nOriginal School Holds + School Holds Set A \t+ School Holds Set B",
        "Image": "/Content/Account/Users/MoonBoards/20170606_210643_HDR.jpg",
        "Latitude": 56.9496487,
        "Longitude": 24.1051865,
        "IsCommercial": false,
        "IsLed": false,
        "LatLng": [
            56.9496487,
            24.1051865
        ]
    },
    {
        "Name": "BoardAshFall",
        "Description": "Standard 40 degree with holds set a+b with some additional holds/jug. Built in the backyard. Later remaining holds will be add as necessary.",
        "Image": "/Content/Account/Users/MoonBoards/IMG_20170611_122033.jpg",
        "Latitude": 47.6007732,
        "Longitude": 19.3605431,
        "IsCommercial": false,
        "IsLed": false,
        "LatLng": [
            47.6007732,
            19.3605431
        ]
    },
    {
        "Name": "Mert club (Moon board 2017, All sets of holds.)",
        "Description": "We are very happy to have this board, holds is very good. Now we will improve our climbing and we can compare with other. Thank you Ben team.",
        "Image": "/Content/Account/Users/MoonBoards/846_70A9D79C-118A-417A-A946-D12E22CA0226.jpg",
        "Latitude": 39.673333,
        "Longitude": 54.543333,
        "IsCommercial": true,
        "IsLed": false,
        "LatLng": [
            39.673333,
            54.543333
        ]
    },
    {
        "Name": "Sheila",
        "Description": "What you wanted yours to be like.   m/",
        "Image": "/Content/Account/Users/MoonBoards/Resized952017061995114649.jpg",
        "Latitude": 33.8885035,
        "Longitude": -117.8132571,
        "IsCommercial": false,
        "IsLed": false,
        "LatLng": [
            33.8885035,
            -117.8132571
        ]
    },
    {
        "Name": "The Moon Palace",
        "Description": "Moon Board, plus 30-degree wall, plus 50-degree HIT strips!",
        "Image": "/Content/Account/Users/MoonBoards/moon-palace.jpg",
        "Latitude": 44.26005929999999,
        "Longitude": -72.5753869,
        "IsCommercial": false,
        "IsLed": false,
        "LatLng": [
            44.26005929999999,
            -72.5753869
        ]
    },
    {
        "Name": "Remyboard",
        "Description": "Build the board with the last panel as a roof.",
        "Image": "/Content/Account/Users/MoonBoards/20170701_222636.jpg",
        "Latitude": 51.4987962,
        "Longitude": 3.610998,
        "IsCommercial": false,
        "IsLed": false,
        "LatLng": [
            51.4987962,
            3.610998
        ]
    },
    {
        "Name": "Boulderland",
        "Description": "The team at Boulderland is very happy to announce that the first Moonboard of Argentina is located in our gym!\r\n\r\nWe are a climbing gym located in Santa Fe (Capital) which now adds a Moonboard as a training board.\r\n\r\nYou can find us on:\r\n- www.boulderland.com.ar\r\n- https://www.facebook.com/boulderland\r\n- www.instagram.com/boulderlandescalada/\r\n\r\nTrain hard, climb harder!",
        "Image": "/Content/Account/Users/MoonBoards/IMG-20170703-WA0007.jpg",
        "Latitude": -31.6106578,
        "Longitude": -60.697294,
        "IsCommercial": true,
        "IsLed": false,
        "LatLng": [
            -31.6106578,
            -60.697294
        ]
    },
    {
        "Name": "Elevation Moon Board",
        "Description": "Built in 2017 by the build crew of Elevation Bouldering Gym, this board has been constructed to the exact Moon Climbing specifications, and is well-braced to eliminate perceptible flex.  Located in an alcove dedicated to training,  users can enjoy an uncontested landing zone.\r\n\r\nWhile the photo does not show the kickboard, it has been built to exact specs as well, and was designed to compensate for the padding height. \r\n\r\nIf the comments are to believed, every problem set for the moonboard is 's",
        "Image": "/Content/Account/Users/MoonBoards/moonclimbing.png",
        "Latitude": 44.0520691,
        "Longitude": -123.0867536,
        "IsCommercial": true,
        "IsLed": true,
        "LatLng": [
            44.0520691,
            -123.0867536
        ]
    },
    {
        "Name": "Power Plant",
        "Description": "Built in a 300 year old barn attached to our house. After nearly 19 years away from climbing this board is beating me back into shape.  Thanks Ben.",
        "Image": "/Content/Account/Users/MoonBoards/IMG_2778.jpg",
        "Latitude": 48.831853,
        "Longitude": 1.609202,
        "IsCommercial": false,
        "IsLed": false,
        "LatLng": [
            48.831853,
            1.609202
        ]
    },
    {
        "Name": "Shackletown",
        "Description": "Made it for home training",
        "Image": "/Content/Account/Users/MoonBoards/IMG-0002.jpg",
        "Latitude": 60.7573977,
        "Longitude": 24.9191054,
        "IsCommercial": false,
        "IsLed": false,
        "LatLng": [
            60.7573977,
            24.9191054
        ]
    },
    {
        "Name": "2.0",
        "Description": "date of birth 2016",
        "Image": "/Content/Account/Users/MoonBoards/IMG_2046.jpg",
        "Latitude": 50.93923,
        "Longitude": 5.16712,
        "IsCommercial": false,
        "IsLed": false,
        "LatLng": [
            50.93923,
            5.16712
        ]
    },
    {
        "Name": "Intellighenzia Project",
        "Description": "Best indoor climbing in Padova, old scool at it's finest!",
        "Image": "/Content/Account/Users/MoonBoards/moonclimbing.png",
        "Latitude": 45.4064349,
        "Longitude": 11.8767611,
        "IsCommercial": true,
        "IsLed": true,
        "LatLng": [
            45.4064349,
            11.8767611
        ]
    },
    {
        "Name": "Dojo Climbing",
        "Description": "Slightly shorter and smaller kick board... But still kicks ass.",
        "Image": "/Content/Account/Users/MoonBoards/moonboard.jpg",
        "Latitude": 38.6779591,
        "Longitude": -121.1760583,
        "IsCommercial": false,
        "IsLed": true,
        "LatLng": [
            38.6779591,
            -121.1760583
        ]
    },
    {
        "Name": "The West Coast Dungeon Family Board",
        "Description": "Not quite to spec - a little short, with a tiny kickboard.",
        "Image": "/Content/Account/Users/MoonBoards/IMG_3147.jpg",
        "Latitude": 37.0510595,
        "Longitude": -122.0146841,
        "IsCommercial": false,
        "IsLed": true,
        "LatLng": [
            37.0510595,
            -122.0146841
        ]
    },
    {
        "Name": "Apex MoonBoard",
        "Description": "Our MoonBoard is in our loft training area and getting lots of use.",
        "Image": "/Content/Account/Users/MoonBoards/moonclimbing.png",
        "Latitude": 38.9822282,
        "Longitude": -94.6707917,
        "IsCommercial": true,
        "IsLed": true,
        "LatLng": [
            38.9822282,
            -94.6707917
        ]
    },
    {
        "Name": "S\u00e4vsj\u00f6 Kl\u00e4tterklubb",
        "Description": "Platsbygg Moonboard med 40 graders lutning. Vi har LED till.\r\nV\u00e4lkomna",
        "Image": "/Content/Account/Users/MoonBoards/moonclimbing.png",
        "Latitude": 57.3989958,
        "Longitude": 14.6658136,
        "IsCommercial": true,
        "IsLed": true,
        "LatLng": [
            57.3989958,
            14.6658136
        ]
    },
    {
        "Name": "Vanhalinna",
        "Description": "Garage training :)",
        "Image": "/Content/Account/Users/MoonBoards/unnamed.jpg",
        "Latitude": 60.500873,
        "Longitude": 22.4612748,
        "IsCommercial": false,
        "IsLed": false,
        "LatLng": [
            60.500873,
            22.4612748
        ]
    },
    {
        "Name": "Stratosfera",
        "Description": "Moonboard at climbing wall in Manufaktura \u0141\u00f3d\u017a.<br />MoonBoard 2016 - ORIGINAL SCHOOL HOLDS, SCHOOL HOLDS - SET A, SCHOOL HOLDS - SET B. Location - https://goo.gl/maps/BbwEtKF4PkC2",
        "Image": "/Content/Account/Users/MoonBoards/863_89DE783A-B74A-4B4C-B981-83075AFFAE48.JPG",
        "Latitude": 51.7806999,
        "Longitude": 19.4478,
        "IsCommercial": true,
        "IsLed": false,
        "LatLng": [
            51.7806999,
            19.4478
        ]
    },
    {
        "Name": "Oliver Woody",
        "Description": "Jungle valley garage training in Hawaii. LEDs and 2016 hold sets.",
        "Image": "/Content/Account/Users/MoonBoards/864_3E9DD51A-228D-4A52-B246-715E68AF34EE.jpg",
        "Latitude": 21.3069444,
        "Longitude": -157.8583333,
        "IsCommercial": false,
        "IsLed": true,
        "LatLng": [
            21.3069444,
            -157.8583333
        ]
    },
    {
        "Name": "John's Board",
        "Description": "Built 19-Aug-17. Currently using hold set A.",
        "Image": "/Content/Account/Users/MoonBoards/IMG_6957.jpg",
        "Latitude": 53.544389,
        "Longitude": -113.4909267,
        "IsCommercial": false,
        "IsLed": false,
        "LatLng": [
            53.544389,
            -113.4909267
        ]
    },
    {
        "Name": "Planet Granite Belmont Moonboard",
        "Description": "40 degree light up moonboard that is part of our training area.",
        "Image": "/Content/Account/Users/MoonBoards/moonclimbing.png",
        "Latitude": 37.5202145,
        "Longitude": -122.2758008,
        "IsCommercial": true,
        "IsLed": true,
        "LatLng": [
            37.5202145,
            -122.2758008
        ]
    },
    {
        "Name": "Kyle's MoonBoard",
        "Description": "Who dis' Kyle guy??? Well, now you know...just some dude in a barn making problems.",
        "Image": "/Content/Account/Users/MoonBoards/IMG_9089.jpg",
        "Latitude": 41.2638494,
        "Longitude": -74.3822058,
        "IsCommercial": false,
        "IsLed": false,
        "LatLng": [
            41.2638494,
            -74.3822058
        ]
    },
    {
        "Name": "The Stronghold Moonboard",
        "Description": "The Stronghold Moonboard is an LED equipped board that you can control with the Moonboard app. Alongside the moonboard is a campus board, 2 system walls a pipe campus board and hangboards. Visit www.strongholdclimb.com for more info.",
        "Image": "/Content/Account/Users/MoonBoards/moonclimbing.png",
        "Latitude": 34.0522342,
        "Longitude": -118.2436849,
        "IsCommercial": true,
        "IsLed": true,
        "LatLng": [
            34.0522342,
            -118.2436849
        ]
    },
    {
        "Name": "Fat Buddha's Climbing Palace",
        "Description": "Just a home board in our front room.  Gives the neighbours something to talk about as they walk past the window on the street outside.",
        "Image": "/Content/Account/Users/MoonBoards/20170906_172816.jpg",
        "Latitude": 56.917521,
        "Longitude": -2.351311,
        "IsCommercial": false,
        "IsLed": true,
        "LatLng": [
            56.917521,
            -2.351311
        ]
    },
    {
        "Name": "BrattCave",
        "Description": "at Brattcave Bouldering Gym\r\n\r\nOne month old. \r\nPainted by Aliana Block\r\n\r\nDay pass $10\r\nMonthly Memberships $40",
        "Image": "/Content/Account/Users/MoonBoards/moonclimbing.png",
        "Latitude": 42.8509152,
        "Longitude": -72.5578678,
        "IsCommercial": true,
        "IsLed": false,
        "LatLng": [
            42.8509152,
            -72.5578678
        ]
    },
    {
        "Name": "Gordon's Board",
        "Description": "Best training board i have ever used ,just keeps on giving .....lol",
        "Image": "/Content/Account/Users/MoonBoards/IMG_010DA1A150C1-3.jpeg",
        "Latitude": 56.547918,
        "Longitude": -3.265548,
        "IsCommercial": false,
        "IsLed": true,
        "LatLng": [
            56.547918,
            -3.265548
        ]
    },
    {
        "Name": "BabyonBoard",
        "Description": "Adjustable angle. Backyard wonder",
        "Image": "/Content/Account/Users/MoonBoards/4F34179F-6208-4BBC-980A-01743D4C02B61.jpg",
        "Latitude": 33.7489954,
        "Longitude": -84.3879824,
        "IsCommercial": false,
        "IsLed": false,
        "LatLng": [
            33.7489954,
            -84.3879824
        ]
    },
    {
        "Name": "QRiMo",
        "Description": "This is QRiMo's moon board!\r\nWe join moon board ranking!\r\nHave a fun!!",
        "Image": "/Content/Account/Users/MoonBoards/moonclimbing.png",
        "Latitude": 34.6379866,
        "Longitude": 138.1281269,
        "IsCommercial": true,
        "IsLed": false,
        "LatLng": [
            34.6379866,
            138.1281269
        ]
    },
    {
        "Name": "The KFUM board",
        "Description": "The board is set with original school hods set, school holds set A and school holds set B. And the life changing led kit. The ultimat training tool!",
        "Image": "/Content/Account/Users/MoonBoards/moonclimbing.png",
        "Latitude": 63.8258471,
        "Longitude": 20.2630354,
        "IsCommercial": true,
        "IsLed": true,
        "LatLng": [
            63.8258471,
            20.2630354
        ]
    },
    {
        "Name": "Mange och Linas Kl\u00e4ttergym",
        "Description": "Moon original series + a lot of other holds",
        "Image": "/Content/Account/Users/MoonBoards/403836_312495192106719_831800550_n.jpg",
        "Latitude": 63.8258471,
        "Longitude": 20.2630354,
        "IsCommercial": false,
        "IsLed": false,
        "LatLng": [
            63.8258471,
            20.2630354
        ]
    },
    {
        "Name": "Back Garden Paradise",
        "Description": "Built to enable a car free lifestyle in a country where car ownership is assumed. No more driving to the gym to train.",
        "Image": "/Content/Account/Users/MoonBoards/877_E33CF552-6128-47E4-9EB6-E3A712543ABC.jpg",
        "Latitude": 37.7652065,
        "Longitude": -122.2416355,
        "IsCommercial": false,
        "IsLed": false,
        "LatLng": [
            37.7652065,
            -122.2416355
        ]
    },
    {
        "Name": "TJRwall",
        "Description": "little bit difficult about 4 degrees.",
        "Image": "/Content/Account/Users/MoonBoards/IMG_0824.jpg",
        "Latitude": 34.2682843,
        "Longitude": 134.1342933,
        "IsCommercial": false,
        "IsLed": false,
        "LatLng": [
            34.2682843,
            134.1342933
        ]
    },
    {
        "Name": "Everyday Wall",
        "Description": "It's a cool training wall whose leaning angle can be changed from 0 to 70 degrees.",
        "Image": "/Content/Account/Users/MoonBoards/880_B5458EE5-D573-4CEF-97A4-D382F724A000.jpg",
        "Latitude": 4.7109886,
        "Longitude": -74.072092,
        "IsCommercial": false,
        "IsLed": false,
        "LatLng": [
            4.7109886,
            -74.072092
        ]
    },
    {
        "Name": "The Drewn Board",
        "Description": "A stately pleasure homewall located in the idyllic \"Heights\" region of Rosendale, NY. Within walking distance of world-class bouldering on high-grade Shawangunk conglomerate.",
        "Image": "/Content/Account/Users/MoonBoards/881_2E6D49F1-E5EE-4C8F-9318-5127D0761193.JPG",
        "Latitude": 41.8443125,
        "Longitude": -74.0810669,
        "IsCommercial": false,
        "IsLed": false,
        "LatLng": [
            41.8443125,
            -74.0810669
        ]
    },
    {
        "Name": "Mt Vic Power House ",
        "Description": "Nice little home wall setup",
        "Image": "/Content/Account/Users/MoonBoards/882_36DAB8EF-3B53-407E-89AE-45DC51AFD1C5.JPG",
        "Latitude": -33.5906899,
        "Longitude": 150.2547707,
        "IsCommercial": false,
        "IsLed": true,
        "LatLng": [
            -33.5906899,
            150.2547707
        ]
    },
    {
        "Name": "La volta XVII sec",
        "Description": "this board was built at the start of 2017 by four friend in a ancient cellar from 1600. <br />But now, whit moon board this cellar is more modern than ever!!!<br />",
        "Image": "/Content/Account/Users/MoonBoards/883_610F7436-73FA-4CB1-9BA9-7BE469A9715A.jpg",
        "Latitude": 46.1698583,
        "Longitude": 9.8787674,
        "IsCommercial": false,
        "IsLed": false,
        "LatLng": [
            46.1698583,
            9.8787674
        ]
    },
    {
        "Name": "Intimissimi Lodge",
        "Description": "Si mangia si beve si lecca la f",
        "Image": "/Content/Account/Users/MoonBoards/884_2E69C363-D023-47BA-946B-79D0171DD36F.JPG",
        "Latitude": 46.1698583,
        "Longitude": 9.8787674,
        "IsCommercial": false,
        "IsLed": false,
        "LatLng": [
            46.1698583,
            9.8787674
        ]
    },
    {
        "Name": "Mare Verticale Moon Board",
        "Description": "La trovate da Mare Verticale ASD<br />Via Sandro Pertini 20<br />FB: https://www.facebook.com/mareverticaleasd/",
        "Image": "/Content/Account/Users/MoonBoards/887_60DD01CC-A891-4DC7-B720-13AC17EAACAE.jpg",
        "Latitude": 42.0440032,
        "Longitude": 14.7339367,
        "IsCommercial": true,
        "IsLed": false,
        "LatLng": [
            42.0440032,
            14.7339367
        ]
    },
    {
        "Name": "The Cliffs in LIC/Moonboard",
        "Description": "Moon board at the best climbing gym in New York City.",
        "Image": "/Content/Account/Users/MoonBoards/888_38982856-407A-4F42-98DD-0819AD43C8B5.jpg",
        "Latitude": 40.7486504,
        "Longitude": -73.9487715,
        "IsCommercial": true,
        "IsLed": true,
        "LatLng": [
            40.7486504,
            -73.9487715
        ]
    },
    {
        "Name": "M\u00f8n Boulders",
        "Description": "Cool board, that live up to the stanard and have the extra future of being able to chance slope!",
        "Image": "/Content/Account/Users/MoonBoards/890_5CEFDF91-EA93-43CD-8155-AA6C9753EFD9.jpg",
        "Latitude": 54.935642,
        "Longitude": 12.2547219,
        "IsCommercial": true,
        "IsLed": true,
        "LatLng": [
            54.935642,
            12.2547219
        ]
    },
    {
        "Name": "The Grip Garage",
        "Description": "The mecca for hard climbing in Iowa.",
        "Image": null,
        "Latitude": 41.6005448,
        "Longitude": -93.6091064,
        "IsCommercial": false,
        "IsLed": false,
        "LatLng": [
            41.6005448,
            -93.6091064
        ]
    },
    {
        "Name": "Bauman Moscow State Technical University",
        "Description": "Crowdfunded by students. Built by students. Climbed by students",
        "Image": "/Content/Account/Users/MoonBoards/895_48BD8685-4D45-4F32-9110-3786B76017AC.jpg",
        "Latitude": 55.755826,
        "Longitude": 37.6172999,
        "IsCommercial": true,
        "IsLed": false,
        "LatLng": [
            55.755826,
            37.6172999
        ]
    },
    {
        "Name": "TSV 1846 N\u00fcrnberg - Bouldern",
        "Description": "TSVbouldern.de<br />N\u00fcrnbergs one and only bouldering club - not private, but members only.",
        "Image": "/Content/Account/Users/MoonBoards/896_6ea777de-b4fd-4052-9d6d-d0dacbe3404d.jpg",
        "Latitude": 49.4521018,
        "Longitude": 11.0766654,
        "IsCommercial": false,
        "IsLed": true,
        "LatLng": [
            49.4521018,
            11.0766654
        ]
    },
    {
        "Name": "Delfts Bleau",
        "Description": "LED Moonboard with the Original School Holds, Set A and Set B",
        "Image": "/Content/Account/Users/MoonBoards/897_8F7AA8A7-DDDA-4DDA-A19D-73AF7FA3A68C.JPG",
        "Latitude": 52.0115769,
        "Longitude": 4.3570677,
        "IsCommercial": true,
        "IsLed": true,
        "LatLng": [
            52.0115769,
            4.3570677
        ]
    },
    {
        "Name": "V\u00e5ghalsen bouldering gym",
        "Description": "40 degrees overhang with LED kit. ",
        "Image": "/Content/Account/Users/MoonBoards/898_6CE082C0-C46F-4D97-9F70-85911C432975.jpg",
        "Latitude": 60.152358,
        "Longitude": 15.1916391,
        "IsCommercial": false,
        "IsLed": true,
        "LatLng": [
            60.152358,
            15.1916391
        ]
    },
    {
        "Name": "Robbie's garden moonboard",
        "Description": "This is outside in my garden as I don't have enough indoor space - it has a perspex roof and is made of pressure treated wood so it doesn't rot. This works well and is even usable when it is raining as it is so steeply overhanging. The board has moved house with me 3 times. In its original incarnation it was on my flat kitchen roof and was raised by a pulley system - you had to be careful not to fall off one side though as you'd fall down a storey and land on a concrete path!",
        "Image": "/Content/Account/Users/MoonBoards/899_68667feb-b8d4-434d-b51b-465c2f047da9.jpg",
        "Latitude": 51.7520209,
        "Longitude": -1.2577263,
        "IsCommercial": false,
        "IsLed": false,
        "LatLng": [
            51.7520209,
            -1.2577263
        ]
    },
    {
        "Name": "The Farm",
        "Description": "Built by myself in an old farm shed. Currently private/ invite only but looking at ways to open it up.",
        "Image": "/Content/Account/Users/MoonBoards/900_1242e606-e9e2-4ee5-ac83-964e893495bb.jpg",
        "Latitude": 54.37648,
        "Longitude": -7.4609224,
        "IsCommercial": false,
        "IsLed": false,
        "LatLng": [
            54.37648,
            -7.4609224
        ]
    },
    {
        "Name": "Hultqvists Moonboard",
        "Description": "The Moonboard is placed in my backyard in Utby, Gothenburg",
        "Image": "/Content/Account/Users/MoonBoards/901_9D2FEE02-B849-4B12-B17D-8BB86322EF50.jpeg",
        "Latitude": 57.73663579999999,
        "Longitude": 12.0511565,
        "IsCommercial": false,
        "IsLed": false,
        "LatLng": [
            57.73663579999999,
            12.0511565
        ]
    },